itemLabel;population;latitude;longitude
Bangkok;5676648;13.75;100.516666666
Chiang Mai;1198000;18.788888888;98.983333333
Phrae;437350;18.145;100.140555555
Chiang Mai;354000;18.788888888;98.983333333
Nonthaburi;255671;13.866666666;100.516666666
Sai Mai;194511;13.919166666;100.645833333
Bang Khae;193303;13.696111111;100.409444444
Bang Khen;190659;13.873888888;100.596388888
Pak Kret;184501;13.9125;100.497777777
Khlong Sam Wa;178958;13.859722222;100.704166666
Bang Khun Thian;173144;13.660833333;100.435833333
Donmuang;170791;13.913611111;100.589722222
Lat Krabang;168309;13.723333333;100.784166666
Prawet;166364;13.716944444;100.694444444
Nong Chok;162598;13.855555555;100.8625
Hat Yai;159130;7.016666666;100.466666666
Chom Thong;156030;13.677222222;100.484722222
Chatuchak;155297;13.828611111;100.559722222
Nong Khaem;153175;13.704722222;100.348888888
Bang Kapi;148964;13.765833333;100.647777777
Bueng Kum;140817;13.785277777;100.669166666
Min Buri;139771;13.813888888;100.748055555
Nakhon Ratchasima;134440;14.973611;102.083056
Q13025343;133000;13.1244;100.9997
Surat Thani;130703;9.139722222;99.330555555
Oudon-Thani;130274;17.4253;102.7902
Phasi Charoen;129238;13.714722222;100.437222222
Bang Sue;128995;13.809722222;100.537222222
Din Daeng;127260;13.769722222;100.552777777
Thung Khru;123700;13.628888888;100.51
Suan Luang;123609;13.721222222;100.629638888
Q15106517;120058;13.5441;100.6175
Pattaya;119532;12.949565;100.893004
Lat Phrao;117108;13.803611111;100.6075
Khonkèn;115928;16.4297;102.8297
Khonkèn;115928;16.433333333;102.833333333
Q2305621;115330;13.725;100.485833333
Wang Thonglang;114245;13.764222222;100.605611111
Lak Si;107797;13.8875;100.578888888
Khlong Toei;107221;13.708055555;100.583888888
Nakhon Si Thammarat;106322;8.436256717;99.962971228
Taling Chan;105857;13.776944444;100.456666666
Dusit;104394;13.776944444;100.520555555
Bang Bon;104366;13.663888888;100.408888888
Bangkok Noi;103791;13.762777777;100.478055555
Q13025226;102291;13.6138;100.6104
Bang Phlat;96787;13.793888888;100.505
Saphan Sung;96092;13.77;100.684722222
Khan Na Yao;92094;13.825833333;100.679444444
Bang Na;88535;13.667222222;100.641944444
Phra Khanong;87856;13.702222222;100.601666666
Nakhon Sawan;86439;15.713333333;100.135277777
Bang Kho Laem;82733;13.693333333;100.5025
Watthana;81623;13.742222222;100.585833333
Huai Khwang;80002;13.776666666;100.579444444
Q14230710;79319;13.987034;100.609485
Ubon Ratchathani;79023;15.228055555;104.859444444
Nakhon Pathom;78780;13.819444;100.058056
Thawi Watthana;78749;13.788611111;100.334166666
Rat Burana;78687;13.682222222;100.505555555
Laem Chabang;77798;13.086;100.9247
Phuket;77610;7.888055555;98.3975
Q13025379;76658;13.643935;100.577968
Yan Nawa;76564;13.696944444;100.543055555
Khet Sathon;75735;13.709453;100.526103
Khlong San;75224;13.730277777;100.509722222
Lat Luang;73898;13.629839;100.533049
Ratchathewi;73790;13.758888888;100.534444444
Q13025361;72774;14.0894;100.6237
Phaya Thai;72203;13.78;100.542777777
Q3809214;71932;12.72499258;101.126427517
Phitsanulok;70871;16.815833333;100.263611111
Chiang Rai;70610;19.909444444;99.8275
Q13025398;70594;12.922695;100.937539
Nong Samet;70000;13.831944444;102.733333333
Q13025347;68994;9.515723194;99.943557694
Q13025370;66092;13.3616;100.9795
Lat Sawai;65906;13.96677;100.690303
Bangkok Yai;63861;13.722777777;100.476388888
Songkhla;63834;7.206111111;100.596666666
Q13025394;63271;13.9726;100.6506
Rayong;61902;12.674166666;101.278888888
Saraburi;61750;14.528611111;100.911388888
Yala;61250;6.539722222;101.281111111
Q3809214;60928;12.72499258;101.126427517
Trang;60591;7.556111111;99.611388888
Q13025401;60412;18.2918;99.5047
Samut Sakhon;60103;13.548611111;100.2775
Q72922470;59478;13.6371;100.6636
Hua Hin;59369;12.568611;99.957778
Thanyaburi;58838;14.0167;100.75
Q72922470;56949;13.6371;100.6636
Q11980574;56128;14.064901;100.644692
Amphawa;56103;13.425;99.956666666
Phra Nakhon;55373;13.764444444;100.499166666
Lampang;55044;18.3;99.5
Prachuap Khiri Khan;54018;11.808886877;99.797960174
Sakhon Nakhon;53618;17.156388888;104.145555555
Ayutthaya;52940;14.359359083;100.5761452
Maha Sarakham;52866;16.177222222;103.300833333
Q17155186;52641;16.47483333;102.84891667
Q13025345;52457;13.7001;100.3241
Q15904499;51932;13.9424;100.3913
Pathum Wan;51557;13.736666666;100.523333333
Samut Prakan;51309;13.6004;100.5964
Bang Bua Thong;50141;13.9099;100.4263
Q17155186;49569;16.47483333;102.84891667
Pom Prap Sattru Phai;49280;13.758055555;100.513055555
Nongkhai;48274;17.884166666;102.746666666
Q28779300;48211;6.988106;100.424468
Q75951218;48146;13.5845;100.6666
Q75951218;46759;13.5845;100.6666
Q28779287;46441;6.997667;100.492585
Q15141380;46440;7.8603;98.3682
Q15904504;46274;13.9032;100.3989
Q15980692;46214;13.9426;100.6508
Q93436354;45974;13.8815;100.3759
Bang Rak;45757;13.730833333;100.524166666
Q15629539;45535;7.90916;98.39986
Q13025411;45142;13.2882;100.9144
Q49169724;44293;16.437875;102.764511
Q15980692;44274;13.9426;100.6508
Pattani;44234;6.866388888;101.250833333
Q6664229;44128;7.23888889;100.55055556
Q28779351;42942;7.164;100.6325
Q49169724;42772;16.437875;102.764511
Q6664229;42423;7.23888889;100.55055556
Si Saket;42405;15.107160098;104.329072437
Q15199204;42390;13.8042;100.4755
Q108730959;41884;13.5633;100.0564
Q1770801;41590;6.0297;101.9668
Q15199163;41498;13.918888888;100.392222222
Narathiwat;41342;6.426388888;101.823055555
Q51726627;40899;13.395635;101.023175
Surin;39728;14.886357357;103.493172423
Chachoengsao;39570;13.690277777;101.070277777
Q27565344;39379;7.068061;100.47897
Q15199188;39197;13.8139;100.4154
Q15904506;38758;13.9134;100.369
Q51726627;38548;13.395635;101.023175
Q101425527;38414;15.3255;104.8317
Chaiyaphum;36923;15.805555555;102.031111111
Q13025329;36676;13.878194444;100.403694444
Ratchaburi;36339;13.536666666;99.816944444
Q94322439;36323;13.580659;100.651765
Q101223339;36156;19.5932;98.9618
Q13025371;35736;14.6796;101.3976
Cha-am;35581;12.799249266;99.968264956
Roi Et;35219;16.0533;103.6513
Phattalung;35039;7.617777777;100.077777777
Q27565344;34923;7.068061;100.47897
Kalasin;34437;16.433333333;103.5
Q15310499;34322;14.721176;100.804723
Uttaradit;33930;17.625555555;100.094166666
Chumpon;33516;10.493888888;99.18
Q13025380;33407;8.53912;99.970176944
Mukdahan;33102;16.543055555;104.722777777
Q28779394;33084;6.5341;101.311
Ang Sila;33053;13.33638889;100.92777778
Q13025285;32726;17.4286;102.8159
Q13025353;31597;16.5431;102.1104
Mae Sot;31530;16.710091;98.570709
Q28790101;31350;14.0709;100.8686
Q13025373;31288;13.995;100.6687
Q15999229;30983;12.720865;101.066894
Q13025367;30750;13.8444;100.4829
Q13025255;30541;;
Q24573306;30508;16.8146;100.3051
Q15199303;30500;8.1669;99.6745
Krabi;30499;8.059166666;98.918888888
Q26206687;30496;16.402;102.7881
Q13025280;30382;13.642053;100.603901
Q13025271;30318;13.681065;100.308555
Q26206743;30176;14.823611111;100.656694444
Chonburi;29961;13.361111111;100.985
Q24573306;29825;16.8146;100.3051
Kamphaeng Phet;29178;16.481111111;99.522222222
Q15264893;28913;16.073;102.7362
Samut Songkhram;28493;13.409722222;100.001666666
Q15212080;28437;12.965785059;99.892405368
Q28790103;28349;13.9576;100.4902
Q13025393;28154;15.2008;104.8612
Q13025413;28144;;
Q13025375;28016;13.599;100.6199
Q15999229;27668;12.720865;101.066894
Q13025403;27354;17.45138889;102.765
Buriram;27150;14.994166666;103.102222222
Q13025331;26804;14.919172216;102.109452625
Betong;26640;5.77305556;101.0725
Q90280475;26584;14.0384;99.546
Nakhon Phanom;26437;17.406944444;104.780833333
Samphanthawong;26359;13.731388888;100.514166666
Suphanburi;26164;14.4675;100.116944444
Q13025291;26111;14.9707;102.1471
Q15629541;26078;7.9112;98.3475
Chalong;26041;7.8396;98.3452
Amnat Charoen;25858;15.875837496;104.622300914
Piang Luang;25725;19.6493;98.6352
Kanchanaburi;25651;14.019444444;99.531111111
Q15980694;24625;13.996827;100.589071
Q7678201;24563;15.2667;100.35
Q15216159;24344;13.5961;100.2818
Q15217707;24237;13.7482;100.3139
Lopburi;24166;14.8;100.626944444
Q15217704;23982;;
Chanthaburi;23835;12.608611111;102.103888888
Q13025222;23630;13.5812;100.7957
Satun;23612;6.614722222;100.068055555
Q15629559;23612;7.8396;98.3452
Q13025372;23518;6.948;100.4794
Q13025387;23418;12.6636;100.9036
Si Racha;23400;13.17444444;100.93055556
Q97856650;23316;13.8882;100.462
Phetchaburi;23235;13.111944444;99.945833333
Q28773249;23144;9.9532;98.6344
Q13025410;23140;18.903194444;99.004111111
Q96058981;23010;13.8442;100.4612
Q13025390;22995;15.6565;101.1072
Pathum Thani;22948;14.051111;100.482778
Q108319117;22903;16.0327;98.6672
Loei;22339;17.485312579;101.730704969
Phichit;22299;16.443055555;100.346666666
Q91937776;22278;13.3418;100.9438
Q93633070;22265;13.6372;100.2967
Q15264898;22178;16.415194444;102.900305555
Phetchabun;22121;16.416944444;101.153333333
Q104772254;22110;7.0452;100.3927
Q15216155;21904;13.6519;100.2572
Q111042613;21901;13.6087;100.6518
Q93633070;21896;13.6372;100.2967
Q15980693;21883;13.958;100.6012
Nongboualamphou;21528;17.204166666;102.444444444
Nang Rong;21493;14.636331;102.774646
Q110821530;21421;13.5687;100.5627
Q13025388;21301;13.5004;102.1806
Q15629584;21191;7.9978;98.3508
Sadao;21086;6.63861;100.424
Q28737771;21067;14.262807;100.693078
Q13025352;20713;15.037156536;103.063344489
Q15273763;20699;20.4266;99.8841
Q11990772;20609;17.304294;102.196399
Nan;20595;18.7893;100.7766
Q13025378;20425;8.353763503;100.202340302
Yasothon;20414;15.797156762;104.143051944
Q15629547;20363;7.8981;98.3047
Q45733759;20335;13.416234;101.06737
Q28779424;20211;13.8437;99.8681
Q15980693;19975;13.958;100.6012
Q6900620;19939;9.1059;99.2326
Q4831587;19854;14.364091111;100.588716944
Q15154234;19801;8.7997;99.3635
Q23571166;19536;14.610229;101.07541
Q11980393;19392;14.6536;104.6278
Q13025368;19346;13.314026111;101.111383055
Q42156602;19305;8.763;99.064611111
Q42156602;19210;8.763;99.064611111
Q13025220;18961;12.8339;99.9346
Q4189383;18943;6.25917;102.053
Q15980715;18797;12.7778;101.6483
Choeng Thale;18611;7.9852;98.3025
Q6900669;18564;18.7433;98.964
Q13025303;18536;14.992191111;103.07827
Q15244228;18518;14.964723968;102.090964869
Q13025359;18320;17.8494;102.5858
Q19858114;18302;16.4523;102.7225
Q15244255;18255;14.962902176;102.031367635
Q13025400;18209;14.87642703;101.720224785
Q45733759;18110;13.416234;101.06737
Q27943195;17983;8.177559;98.964843
Sa Kaeo;17864;13.820555555;102.058888888
San Kamphaeng;17857;18.75;99.1167
Singburi;17843;14.891111111;100.403055555
Prachinburi;17768;14.056667;101.373889
Q15980715;17764;12.7778;101.6483
Q13025281;17747;14.9197;102.0179
Q13025385;17611;13.72698;100.21526
Q28790359;17603;15.928;99.48
Rawaï;17586;7.7707;98.3185
Q15978653;17579;8.660259049;99.376755527
Tak;17565;16.871111111;99.125
Q19858114;17564;16.4523;102.7225
Phayao;17467;19.165228698;99.903604272
Q15978653;17373;8.660259049;99.376755527
Ban Pong;17298;13.8174;99.883
Q19838152;17257;7.141212544;100.290546778
Q1013447;17148;17.309917566;99.826279087
Q806041;17116;12.62866358;101.439944852
Q15629557;16988;7.7707;98.3185
Q28731267;16851;12.393888888;99.915888888
Q15271457;16830;18.7694;98.9499
Q27943194;16800;6.9581;100.3207
Q27943195;16673;8.177559;98.964843
Phrae;16668;18.143611111;100.141666666
Q13025195;16527;15.0311;102.1381
Q15222417;16470;15.205351;101.135643
Q27943194;16344;6.9581;100.3207
Aranyaprathet;16211;13.69277778;102.50166667
Nakhon Nayok;16195;14.203056;101.215
Q28574210;16130;13.698314;99.906846
Ranong;16125;9.961944444;98.638888888
Q13224249;16090;19.732222222;99.140277777
Q13025369;15913;17.704;103.2623
Q15310482;15881;13.9297;100.7375
Q13025272;15691;17.415498;99.815179
Q2624333;15680;6.66644444;100.32361111
Q15217897;15632;14.3605;99.8852
Sukhothaï Thani;15618;17.014166666;99.821944444
Q47016496;15524;16.1253;101.8967
Q56509067;15496;16.5518;101.9076
Q56509067;15470;16.5518;101.9076
Q94320684;15465;14.068139;101.812473
Q47016496;15463;16.1253;101.8967
Q15738321;15436;9.125;99.283611111
Uthai Thani;15434;15.38;100.025
Q13025313;15416;13.24033147;99.825379001
Q13025263;15360;17.610031859;99.223391286
Q15980698;15329;16.2108;100.4188
Q13025187;15220;8.041667545;99.650090635
Q20203631;15188;12.6582;101.5922
Q13025355;15175;18.7591;99.0784
Q94320684;15123;14.068139;101.812473
Q15629589;15060;8.0121;98.3988
Q20203631;15006;12.6582;101.5922
Q13025262;14815;;
Q21116551;14777;14.7926;100.6701
Q21116551;14591;14.7926;100.6701
Q16363550;14577;14.886373055;100.323471111
Q37854216;14536;16.411894;102.040159
Q37854216;14529;16.411894;102.040159
Q15980656;14522;6.7012;101.6181
Q15244558;14488;15.213057685;102.554748965
Q21509765;14385;18.5481;99.0355
Q13025407;14272;14.731698552;102.027683008
Q15310409;14264;14.90598;105.07836
Q13025374;14218;;
Q62090650;14215;19.077791;99.927022
Q13025363;14168;15.585842;102.433692
Q15980656;14137;6.7012;101.6181
Q22682168;14089;12.7592;100.9043
Q16363550;14018;14.886373055;100.323471111
Q99167978;13987;13.9841;100.5512
Q16363550;13937;14.886373055;100.323471111
Q15980698;13868;16.2108;100.4188
Q13025240;13786;13.8273;100.3859
Q28779269;13785;12.637602;102.088447
Q15982805;13773;9.9923;98.6507
Q13025208;13768;8.077197462;99.65784549
Q101229157;13597;19.4294;98.9789
Q22682168;13539;12.7592;100.9043
Q15244236;13515;14.91156479;101.978860814
Q108764552;13507;16.1675;104.6408
Q62090650;13502;19.077791;99.927022
Q13025287;13499;13.385000566;101.219608393
Q15272853;13450;19.161209;99.994579
Q21150906;13350;14.3258;99.8623
Q13025242;13301;18.4901;98.6747
Ang Thong;13277;14.5926;100.4574
Q13025406;13188;19.14416667;98.99833333
Q19838141;13158;18.3323;99.5384
Q21150906;13157;14.3258;99.8623
Q15310375;13082;13.597555555;100.584777777
Q15244502;13037;14.932356523;101.515910211
Mai Khao;13005;8.1812;98.2992
Q91936094;12975;13.409505;101.001209
Q15199316;12968;8.171655361;99.659408061
Q45215019;12959;17.2791;102.8022
Q15217918;12926;14.23055556;100.03888889
Q15980663;12902;7.789154889;99.632876504
Q15980663;12902;7.789444444;99.634722222
Q15738328;12885;9.030953;99.372306
Q13025286;12866;14.335230173;100.872656249
Q91936094;12815;13.409505;101.001209
Q45215019;12760;17.2791;102.8022
Q15225134;12752;14.5864;100.9967
Q6735086;12746;15.138874356;102.26917705
Q101652280;12741;10.5278;98.9027
Q28721669;12710;14.6666;100.4702
Q26268069;12709;19.196134;99.837829
Q15244449;12639;14.534;101.3791
Lamphun;12595;18.580277777;99.007222222
Lamphun;12595;18.586547688;99.012078557
Q26268069;12586;19.196134;99.837829
Q47517363;12584;13.4221;101.0345
Q13025360;12572;;
Q15861673;12568;14.730519965;102.16534371
Nong Pling;12558;16.533611;99.508056
Q28727699;12553;18.339166666;100.317222222
Chainat;12541;15.187222222;100.128333333
Q15212108;12541;13.216764988;99.976745632
Q13025348;12533;7.4067;99.515
Q28779232;12504;12.603494;102.123596
Q15982805;12466;9.9923;98.6507
Q13025206;12388;8.16;99.7172
Q15980663;12337;7.789154889;99.632876504
Q15980663;12337;7.789444444;99.634722222
Q13025286;12336;14.335230173;100.872656249
Q15980695;12290;16.7775;101.2468
Q51748828;12269;13.3847;100.9856
Q13025184;12215;17.3328;99.5363
Q28727633;12160;17.469161;104.102045
Q28727633;12160;17.489722222;104.100555555
Q101634344;12143;18.1476;98.3489
Q51748828;12136;13.3847;100.9856
Q28779376;12084;7.353556;100.48979
Q15265045;11992;17.2995;101.762444444
Q13025362;11966;13.9499;99.753
Q28735875;11951;15.864722222;100.585833333
Q15383135;11934;9.31693;99.694367
Q109321415;11801;14.5414;105.2641
Q47517363;11779;13.4221;101.0345
Q13025357;11753;16.531795;104.044002
Q13025178;11739;17.129046;102.961834
Q15268937;11739;;
Q15980695;11685;16.7775;101.2468
Q37416704;11593;17.615727;103.427406
Q15264887;11593;15.808364954;102.601795021
Q15264887;11593;15.816;102.599811111
Q13025322;11569;20.40338;99.88561
Q28727709;11542;17.9835;100.0519
Q108764572;11491;16.2685;104.406
Q21408195;11481;15.2762;104.8002
Q37416704;11456;17.615727;103.427406
Q13025269;11444;15.300790474;103.30134294
Q7967605;11420;14.694063355;101.541706008
Q44970001;11420;17.247208;104.240019
Q1390973;11324;13.04704;100.92891
Q16267152;11318;13.8023;100.3208
Q44970001;11281;17.247208;104.240019
Q13025231;11276;16.046808129;102.167239064
Q15978637;11271;8.6139;99.3259
Q13025330;11253;15.076088061;102.119504207
Q6485624;11250;9.951895;99.081342
Q15978535;11248;9.267389;99.192177
Q13025259;11228;12.8425;101.1153
Q28732540;11217;15.655555555;103.583611111
Q16267152;11180;13.8023;100.3208
Q72922645;11139;13.8283;100.1041
Q13025304;11121;;
Q15978535;11108;9.267389;99.192177
Q21408195;11092;15.2762;104.8002
Q28737753;11092;14.373888888;100.485277777
Q28737753;11092;14.424667689;100.475805661
Q107231055;11090;18.1865;103.7408
Q15206494;11085;7.109115;100.475203
Q15980680;11073;12.452466;102.22667
Q108764813;11069;15.9089;104.0647
Q13025381;11032;13.44581;101.18445
Fao rai;10978;18.017548;103.305749
Q15253733;10953;15.02248892;103.042026515
Q15198896;10951;9.055201;99.83982
Q110453502;10939;19.9223;100.3057
Q15978637;10901;8.6139;99.3259
Q112133936;10886;17.4798;102.2902
Q13025341;10864;14.749;104.3574
Q13025382;10842;15.2482;105.2296
Q72922645;10837;13.8283;100.1041
Q15980680;10835;12.452466;102.22667
Q15272683;10831;19.179926976;100.908881713
Q16000036;10828;14.065573543;100.522617152
Q13023514;10818;8.471748268;99.856773968
Q13025344;10804;19.730602476;100.117965197
Q15890145;10785;14.727184175;102.233320267
Q15980709;10782;14.31212879;100.374314667
Q13025232;10767;13.8369;100.35906
Q15814018;10763;9.102;99.4863
Q28854803;10747;13.35146;102.183292
Q21408231;10726;16.7081;103.0811
Q111340098;10716;13.882028877;100.287924087
Q15980709;10711;14.31212879;100.374314667
Q97291166;10696;14.6013;100.2602
Q94999538;10693;12.240313;99.868837
Q101233008;10668;16.3873;104.6955
Q25139672;10637;16.578817;102.110654
Q13023551;10635;14.1359;100.8899
Q63965432;10630;13.70654;99.890179
Q99168499;10622;13.6306;99.6043
Q41624864;10614;13.648598;100.006285
Q101425813;10564;15.2482;104.8968
Q41624864;10561;13.648598;100.006285
Q18983379;10558;20.029618055;99.284725
Q13023514;10554;8.471748268;99.856773968
Q108764563;10501;16.1896;104.5168
Q101223460;10500;19.5342;98.9621
Q107213744;10497;18.0209;103.8186
Q63965432;10480;13.70654;99.890179
Q28736781;10457;;
Q28735879;10450;15.6;100.649444444
Trat;10413;12.24188871;102.51492855
Phang Nga;10412;8.464444444;98.531666666
Q15380573;10404;14.609184478;103.081765437
Q15995307;10397;12.82877;101.20507
Q15273747;10359;19.6104;99.8451
Q28729532;10357;18.024955391;103.706020454
Q110089087;10337;16.26036;103.6465
Q28727267;10259;17.4262;102.5646
Q112155675;10249;10.4697;99.2137
Q15199032;10245;8.338841498;99.851273143
Q110821920;10245;14.2128;100.4976
Q28735554;10219;13.961111111;99.641111111
Q37423392;10214;17.405729;103.299191
Phra Pradaeng;10190;13.659;100.5329
Q15980679;10185;12.619648;102.011187
Q21408231;10169;16.7081;103.0811
Q37423392;10168;17.405729;103.299191
Q16000036;10164;14.065573543;100.522617152
Q13025234;10143;18.579125442;99.068639219
Q13025225;10135;8.356809;99.905188
Q15147902;10132;17.27444444;102.87527778
Q28732029;10089;14.6867;102.5325
Q15814006;10075;9.1309;99.4467
Q13025236;10063;14.960195673;104.165653496
Q15244029;10061;14.896466053;101.816735431
Q15911858;9995;16.674210788;102.146975352
Q15911858;9983;16.674210788;102.146975352
Q27943198;9958;16.799669;102.773442
Q28736770;9942;16.333343411;103.578201061
Q28737739;9905;14.462638888;100.36675
Q15978542;9904;8.635833333;99.366666666
Q15978542;9904;8.636381114;99.368293152
Q101229296;9875;19.3412;98.9604
Q13025239;9864;;
Q97228886;9856;17.706236;101.719825
Q13025260;9853;15.031429836;102.03228987
Q15980679;9843;12.619648;102.011187
Q15982811;9835;9.7571;98.5915
Q15966556;9828;15.178764562;102.25142485
Q15966556;9828;15.1788;102.2514
Q28727283;9816;17.270222242;102.598508847
Q27943198;9792;16.799669;102.773442
Q13025193;9777;18.418;98.6758
Q107145856;9777;17.9684;104.0484
Q15303427;9754;17.85352;102.801689
Q15966556;9730;15.178764562;102.25142485
Q15966556;9730;15.1788;102.2514
Q28726657;9721;19.293888888;100.861666666
Q28726657;9721;19.292986936;100.873948929
Q18983379;9699;20.029618055;99.284725
Q15814020;9695;9.083;99.5282
Q28735724;9676;16.16;100.596666666
Q15244222;9662;14.931256468;102.051686406
Q15215166;9643;14.042981544;100.429090907
Q13025203;9610;14.842191719;102.194339285
Q110419750;9606;20.2567;100.4033
Q71861789;9590;18.91625;98.960527777
Q15978542;9587;8.635833333;99.366666666
Q15978542;9587;8.636381114;99.368293152
Q108764797;9576;15.7659;104.1917
Q13025414;9575;13.6918;99.8531
Q71861789;9567;18.91625;98.960527777
Q42171638;9519;13.843893;100.068634
Q15198974;9512;;
Q107671241;9504;17.4869;103.2011
Q15814009;9492;9.1653;99.4706
Q99209274;9490;8.751254;98.802942
Ban Krot;9471;14.312057;100.600539
Q15904519;9434;13.924111111;100.468388888
Q56118436;9407;18.230363;99.3915
Q110218419;9358;16.7634;104.1677
Q15980674;9357;13.7268;101.2105
Q97309678;9355;17.8963;102.6013
Q19698463;9334;19.0625;98.9396
Q16559846;9334;17.9286;102.7901
Q56118436;9327;18.230363;99.3915
Q13025298;9320;15.639456392;103.709340689
Q15889803;9318;20.438;99.9124
Q15980674;9311;13.7268;101.2105
Q15980673;9300;14.4921;100.4448
Q19943614;9290;;
Q42171638;9281;13.843893;100.068634
Q28732623;9278;17.1011;100.8296
Q28771796;9276;15.854805555;102.471694444
Q111297119;9275;17.856;98.9269
Q13025192;9265;15.353764351;102.746853345
Q15198866;9263;9.1792;99.8569
Q13025198;9261;16.375603792;103.828997949
Q28736761;9213;16.65;103.3
Q28732576;9210;12.905833333;102.262222222
Q28732576;9210;12.905688877;102.266330237
Q15310428;9209;15.96533;105.2112
Q112133916;9205;17.4974;102.3249
Q15303460;9201;15.039;102.1952
Q28732550;9183;15.6078;103.8
Q19698463;9174;19.0625;98.9396
Q21278778;9170;16.329806519;102.799798229
Q28771905;9133;16.09388889;102.74416667
Q107672585;9105;17.7729;102.2122
Q108764794;9087;15.8214;104.1474
Q21278778;9075;16.329806519;102.799798229
Q37788902;9070;17.589841111;103.985898888
Q19943614;9065;;
Q13025213;9059;;
Q28771792;9027;16.175472;102.702944
Q26206148;9023;16.6775;102.2914
Q15980673;9018;14.4921;100.4448
Q37788902;9013;17.589841111;103.985898888
Q15260331;9012;16.108344148;102.257614002
Q15260331;9012;16.108611111;102.258055555
Q17298358;9003;15.069688117;101.118191223
Q28727689;8984;16.24298958;103.062682731
Q102716896;8971;16.2955;99.8089
Q7049350;8950;14.750945236;102.318680659
Q28727763;8931;15.457037574;99.895945813
Q42171411;8925;16.679508;102.716103
Q28731273;8916;12.0702;99.8667
Q15272670;8888;;
Q107213752;8883;17.8773;103.9423
Q13025258;8860;10.504364237;98.985287348
Q28732570;8842;12.481666666;102.073611111
Q13025197;8837;15.852688211;103.622110891
Q13025284;8837;15.261566616;101.791213106
Q108731664;8835;13.6458;100.3123
Q28732145;8832;12.5728;102.5367
Q42171411;8832;16.679508;102.716103
Q13025358;8815;8.8658;98.3413
Q13025197;8774;15.852688211;103.622110891
Q108764512;8762;16.0899;104.4105
Q15980673;8758;14.4921;100.4448
Q15980700;8756;16.027777777;100.379166666
Q104716998;8752;18.3479;103.3981
Q28727294;8742;17.769403409;102.143504855
Q28727294;8742;17.770277777;102.189444444
Phimai;8696;15.222863041;102.493992086
Q108764595;8673;16.2557;104.5097
Q43254491;8667;17.115071;103.018576
Q28736750;8666;16.399722222;103.367777777
Q28727197;8645;18.517690987;98.939359573
Q28727197;8645;18.526111111;98.939444444
Q110739323;8631;16.6536;99.577
Q111284819;8624;18.893473244;100.287910974
Q13025210;8623;8.237874637;100.008237963
Q95587337;8607;13.922914;101.03127
Q95587337;8597;13.922914;101.03127
Q41776289;8581;17.110388888;102.583
Q16559846;8575;17.9286;102.7901
Q13025308;8570;8.231936526;99.874620886
Q15982811;8569;9.7571;98.5915
Q64006375;8564;18.6171;98.9511
Q107652423;8564;17.9142;102.2403
Q15253729;8563;14.48546;103.184771
Q41776289;8556;17.110388888;102.583
Q5213803;8540;15.147224235;102.208363241
Q15995307;8519;12.82877;101.20507
Q64006375;8508;18.6171;98.9511
Q99169327;8503;18.3191;99.3256
Q13025310;8498;19.350295166;100.138402505
Q28726658;8486;17.475043869;103.456873024
Q50309145;8481;17.162915;102.574519
Q26700457;8468;12.827;101.669194444
Q42171534;8462;18.70566;99.106811
Q110768839;8454;14.3737;100.4857
Q28729607;8449;16.8699;102.564
Q15980700;8448;16.027777777;100.379166666
Q110477157;8445;12.2124;102.5116
Q13025201;8443;18.7263;100.7428
Q111296697;8433;17.7699;98.9626
Q28726670;8429;14.021944444;100.171944444
Q15244437;8426;14.636387404;101.258136079
Q15980683;8426;15.898005;100.311026
Q13025288;8421;8.02508864;100.315966831
Q55472825;8399;19.0727;100.0698
Q50309145;8357;17.162915;102.574519
Q43254491;8341;17.115071;103.018576
Q13025247;8314;6.08743549;101.87284573
Q15268904;8308;15.5183;103.1921
Q107671381;8297;17.285;103.2281
Q55472825;8271;19.0727;100.0698
Q15978651;8270;8.642;99.326
Q28572792;8264;16.074034;99.857364
Q107652451;8263;16.5288;102.4093
Q37420151;8249;17.404327;103.38572
Q107652312;8241;17.1963;103.1144
Q13025305;8237;14.3761;99.8922
Q6931931;8235;;
Q13025314;8231;16.233727185;103.813028933
Q58393537;8226;13.8005;100.1869
Q76449948;8211;7.593137;100.076503
Q108342620;8201;16.9276;98.5684
Q37420151;8172;17.404327;103.38572
Q13025320;8172;8.5851;99.589
Q15629555;8169;7.8165;98.3001
Karon;8147;7.8165;98.3001
Q28772816;8145;16.084;102.6193
Q28732194;8136;15.241666666;105.092222222
Q110218443;8135;16.8066;104.5337
Q19858139;8118;17.3639;101.7473
Q76449948;8116;7.593137;100.076503
Q42171534;8112;18.70566;99.106811
Q12005687;8093;13.92027778;99.76666667
Q13025268;8086;8.172242334;99.853342957
Q76124976;8061;18.421657;100.140268
Q16956760;8036;18.9755;98.982
Q108731638;8023;13.6456;100.2542
Q110739665;8019;16.6058;99.6516
Q15978651;8010;8.642;99.326
Q76124976;7983;18.421657;100.140268
Q97397848;7983;17.931389;102.532406
Q16859565;7981;14.867808151;103.842255595
Q13025315;7967;17.316026967;99.64518446
Q16325249;7957;15.2255;101.9112
Q104590976;7957;8.5967;98.257
Q19858139;7956;17.3639;101.7473
Q15243208;7946;17.382152286;99.791891348
Q16022987;7943;13.517718199;99.954514806
Q16022987;7943;13.518333333;99.954722222
Q15980683;7942;15.898005;100.311026
Q104671240;7914;9.9912;98.612
Q30095154;7911;13.7815;99.9189
Q95104142;7905;12.198626;99.855935
Q13025250;7874;19.563715;99.962199
Q16956760;7873;18.9755;98.982
Q30095154;7872;13.7815;99.9189
Q15978485;7870;9.3778;99.2728
Q19825965;7868;14.38086775;103.166035364
Q16859565;7835;14.867808151;103.842255595
Q16325249;7834;15.2255;101.9112
Q20680206;7813;15.9972;101.0652
Q91603134;7810;16.377035;101.975129
Q15244626;7781;14.568597129;102.156406529
Q110038256;7774;16.102310386;103.844166279
Q13025211;7760;17.324048888;99.567136944
Q15244617;7756;14.424215;102.458389
Q112133881;7755;17.5645;102.2807
Q98931425;7740;17.6874;102.4756
Q15978485;7736;9.3778;99.2728
Q13025292;7727;;
Q104716818;7713;6.9012;100.4176
Q19825965;7695;14.38086775;103.166035364
Q88472045;7677;18.3627;103.6083
Q15629842;7672;8.0299;98.3336
Q108764583;7614;16.2705;104.4844
Q110453513;7610;19.8332;100.2569
Q13025229;7567;8.682228639;99.781379689
Q110768882;7557;14.4635;100.3254
Q108764578;7535;16.2319;104.4694
Q108764750;7531;15.5923;104.3915
Q111296558;7529;18.053418362;98.881637404
Q16559902;7508;;
Q28727059;7491;16.884166666;101.884722222
Q110517692;7491;12.6768;102.4592
Q20680206;7481;15.9972;101.0652
Q15244247;7478;14.837905496;102.0686537
Q16369161;7477;15.208380706;100.834015795
Q108764805;7476;15.8515;104.098
Q5071051;7459;8.388419046;99.540068153
Q37790285;7440;17.3645;103.7089
Q15243206;7435;17.018822;99.714586
Q97380642;7426;17.9814;102.9912
Q13025299;7417;15.096987056;104.164287163
Q107671406;7402;17.2167;103.2476
Q16022987;7399;13.517718199;99.954514806
Q16022987;7399;13.518333333;99.954722222
Q100241204;7384;15.586253;101.859041
Q2658511;7380;14.219954056;100.581290786
Q104716882;7356;6.8788;100.4352
Q37790285;7350;17.3645;103.7089
Q16369161;7348;15.208380706;100.834015795
Q42745713;7343;17.472194444;103.262611111
Q110038399;7316;16.0305;103.7774
Q109321380;7306;14.5309;105.2431
Q63966509;7295;13.715688;99.77189
Q28721653;7291;18.6886;98.9193
Q13025323;7284;19.91888889;99.21361111
Q17320422;7280;14.96348;104.03725
Q28729420;7266;6.294170963;101.723773628
Q28729420;7266;6.296666666;101.728333333
Q42745713;7260;17.472194444;103.262611111
Q5874079;7237;18.434113627;103.434938971
Q17320422;7220;14.96348;104.03725
Q15244190;7192;14.925281597;101.964544424
Q15244241;7184;15.032880942;102.168245811
Q28732560;7147;15.5034;101.681
Q16611496;7142;17.956388888;102.586669444
Q20750725;7115;7.311253564;100.040091303
Q104716985;7102;18.3127;103.7999
Q28735553;7095;14.325277777;99.514722222
Q28735553;7095;14.328428057;99.515392579
Q28737728;7092;14.462777777;100.608333333
Q28737728;7092;14.470076745;100.613458279
Q13025224;7086;14.8108;105.2312
Q45260469;7081;17.3595;102.817
Q110739191;7078;16.6472;99.5759
Q13025200;7063;7.471312433;99.979128926
Q28772016;7039;16.02974;102.366653
Q15839185;7035;9.7176;99.9949
Q13025278;7027;9.0072;99.9018
Q16262992;7005;19.523333333;100.3
Q16262992;7005;19.522315;100.303365
Q15980706;6979;14.5596;100.7226
Q15199281;6956;8.088671153;100.139843724
Q13025302;6954;8.108331395;100.277172117
Q110369083;6931;17.320597002;102.073484233
Q18279726;6920;18.363820151;103.481335664
Q13025297;6913;;
Kamala;6898;7.9453;98.2874
Q107213777;6897;17.943298466;103.777918064
Q20010333;6892;14.838960671;103.152047281
Q101651575;6886;9.3782;98.4209
Q13025333;6884;15.596199968;104.097776676
Q15059697;6877;15.143552;98.449817
Q37790483;6871;17.583747;103.542235
Q37790483;6869;17.583747;103.542235
Q26689956;6866;12.777164;101.718283
Q37418960;6857;17.436418;103.587808
Q45260469;6850;17.3595;102.817
Q18279726;6832;18.363820151;103.481335664
Q37418960;6830;17.436418;103.587808
Q15813145;6829;15.5988553;102.298359855
Q111339905;6829;16.4851;99.4878
Q28731245;6827;7.591181;99.033691
Q13025253;6823;8.527404224;99.823626818
Q13025316;6807;17.566498489;99.203792629
Q13025327;6792;16.6782;98.5668
Q56273614;6773;17.4743;101.980031
Q15738346;6771;9.1476;99.3924
Q110088962;6771;16.2983;103.4927
Q16262992;6748;19.523333333;100.3
Q16262992;6748;19.522315;100.303365
Q56273614;6748;17.4743;101.980031
Q28654902;6741;16.2;102.749194444
Q15688434;6731;14.6574;100.1409
Q110032867;6729;16.0466;103.7196
Q28654902;6722;16.2;102.749194444
Q13025321;6713;;
Q25140801;6707;16.567896;102.278686
Q20010333;6702;14.838960671;103.152047281
Q16559902;6682;;
Q28722399;6678;17.928105095;103.942571777
Q28722399;6678;17.928611111;103.955277777
Q2658511;6668;14.219954056;100.581290786
Q26689956;6641;12.777164;101.718283
Q15629844;6623;7.9885;98.3132
Q27943197;6605;17.0735;102.8595
Q110477112;6600;12.2546;102.5582
Q27943197;6594;17.0735;102.8595
Q108269079;6568;17.05;99.0742
Q44973203;6563;17.182111111;104.331611111
Q15978647;6548;8.5808627;99.371467026
Q29342342;6547;13.7248;100.0817
Q44973203;6528;17.182111111;104.331611111
Q28735477;6527;13.743658;101.352266
Q28735477;6527;13.747777777;101.355277777
Mae Hong Son;6526;19.301111111;97.97
Q29342342;6519;13.7248;100.0817
Q16515187;6515;14.532637614;103.930077145
Q28727657;6494;16.936388888;104.710277777
Q28735869;6483;15.754256;99.780806
Q37424104;6483;17.433257;103.405147
Q15989144;6475;16.374860776;104.555128709
Q110217273;6473;16.555;104.6369
Q15197211;6462;10.511430155;99.120080551
Q15980682;6456;15.069117458;100.723427894
Q28732567;6450;16.368165;102.134422
Q37424104;6438;17.433257;103.405147
Q13025204;6432;15.2099;101.7667
Q28732122;6427;19.505;99.9925
Q49169136;6424;14.06012;99.456571
Q16515187;6418;14.532637614;103.930077145
Q28735471;6416;13.5051;100.9567
Q112155697;6368;10.4435;99.2495
Q13025279;6359;13.0206;100.0124
Q16440427;6356;14.368005153;100.671342735
Q12010953;6352;6.868;101.3587
Q108345243;6350;16.3865;98.6924
Q110088989;6348;16.2757;103.5745
Q28726675;6347;6.843611111;101.178055555
Q15244623;6345;14.523957983;102.248086045
Q15989144;6334;16.374860776;104.555128709
Q112133868;6289;17.5228;102.1931
Khemmarat;6288;;
Q13025249;6282;8.470375139;100.046639699
Q15978647;6279;8.5808627;99.371467026
Q110821545;6277;14.5808;100.5325
Q15977652;6273;15.534077953;102.717581602
Q108764778;6270;15.9477;104.2101
Q104591018;6256;7.955586426;98.589759719
Q28736016;6228;13.468055555;101.095277777
Q28722068;6220;14.589;100.3482
Q15890137;6214;14.521568221;102.203131643
Q37789455;6195;17.345568;103.847829
Q15688358;6185;14.6204;100.1444
Q49169136;6180;14.06012;99.456571
Q15199289;6168;7.972066102;99.963525217
Q97381764;6156;17.814;102.7009
Q13025293;6148;13.124785952;99.871626877
Q37789455;6137;17.345568;103.847829
Q15977652;6130;15.534077953;102.717581602
Q25143248;6122;16.270954;103.747354
Q105846697;6122;15.2959;100.1862
Q18562219;6118;;
Q28772812;6106;15.735917;102.790861
Q13025326;6096;14.781472213;103.058191394
Q25143248;6086;16.270954;103.747354
Q41074460;6083;17.274997;103.994049
Q112133893;6080;17.5575;102.1526
Q13025207;6077;14.96138889;100.34583333
Q110821537;6069;14.1678;100.526
Q13025290;6067;15.1053;102.177
Q25266028;6065;16.88472222;101.23361111
Q13023548;6057;17.308790183;102.597149617
Q110453504;6057;19.81;100.2397
Q6470966;6052;14.758504722;102.314802088
Q13025216;6045;;
Q15980682;6041;15.069117458;100.723427894
Q108269272;6034;17.0149;99.0058
Q97397523;6028;17.798065;102.661709
Q61367673;6025;17.399898;103.225876
Q37790738;6020;17.63577778;103.75491667
Q41074460;6013;17.274997;103.994049
Q17093684;5964;14.353579749;102.430606898
Q18562219;5964;;
Q16308052;5961;18.2025;98.5974
Q28732045;5946;15.870694444;102.906388888
Q15890123;5940;14.552878892;102.209421497
Q7047828;5928;14.681111;102.022172
Q110089067;5913;16.3164;103.5985
Q37790738;5901;17.63577778;103.75491667
Q17093684;5899;14.353579749;102.430606898
Q110739260;5894;;
Q15995629;5891;12.9728;101.2143
Q18711717;5880;8.377998621;98.721079399
Q28735872;5835;15.850555555;100.079166666
Q16308052;5832;18.2025;98.5974
Q111339936;5821;16.389813992;99.520859299
Q101425617;5814;15.2759;104.8357
Q28732545;5782;16.39;104.154444444
Q28922656;5777;6.458495322;101.354286106
Q28736775;5772;16.589722222;103.235555555
Q28736775;5772;16.600086096;103.226395844
Q84348031;5771;16.037;103.1231
Q63966380;5743;13.62644;99.829326
Q28735876;5731;15.455277777;100.135277777
Q28735876;5731;15.455676442;100.135137829
Q95730488;5720;7.6404;99.5875
Q18711717;5719;8.377998621;98.721079399
Q28732665;5719;19.150738128;100.265241265
Q28732665;5719;19.149444444;100.275277777
Q107145946;5719;17.9622;104.0426
Q102347738;5711;17.8758;101.9787
Q63966380;5709;13.62644;99.829326
Q44055611;5703;17.12841;102.961714
Q28463802;5682;15.961681;102.691113
Q51950669;5675;18.7343;99.9712
Q107652234;5673;17.182;103.1612
Q108764611;5664;16.1669;104.372
Q44055611;5660;17.12841;102.961714
Q99375846;5646;8.713849;99.354529
Q13025190;5638;;
Q16859276;5626;16.137126024;103.311626004
Q16390169;5595;14.445298444;100.736695525
Q15199264;5573;8.585496857;99.538221802
Q15885922;5536;15.308337733;101.981640274
Q28922656;5532;6.458495322;101.354286106
Q51950669;5530;18.7343;99.9712
Q15199337;5525;8.366771589;99.34217013
Q13025217;5503;9.2237;99.844
Q13025237;5494;15.694470695;102.208730361
Q104716971;5491;18.4118;103.5187
Q110755369;5485;16.2074;99.7601
Q15966545;5480;15.260062087;102.02728889
Q25144217;5478;18.9464;98.9835
Q13025221;5469;13.8514;100.4242
Q16859276;5454;16.137126024;103.311626004
Q110516979;5445;12.1033;102.3522
Q16363568;5443;15.2348;100.6524
Q13025186;5435;18.681;100.7557
Q13025223;5431;13.263762657;99.943925471
Q47067537;5424;17.0453;102.9301
Q107406678;5420;16.771720772;101.049453203
Q28732629;5408;17.2774;100.6156
Q15966545;5406;15.260062087;102.02728889
Q29478542;5402;16.0233;103.3862
Q13025205;5397;14.636806227;101.84454781
Q15688410;5394;;
Q15217902;5391;14.63;100.1307
Q16558022;5387;15.7359;102.7909
Q15244581;5385;15.332954287;102.164611085
Q15896488;5383;15.05205262;101.956882821
Q28735558;5376;14.1315;99.7029
Q47067537;5374;17.0453;102.9301
Q110517455;5351;11.7339;102.9014
Q107671346;5347;17.3153;103.1901
Q38887490;5332;16.541473;103.079623
Q15199227;5316;8.395540335;99.499972966
Q108337877;5311;16.9621;98.581
Q38887490;5310;16.541473;103.079623
Q16500043;5303;14.334739085;100.303735206
Q16500043;5277;14.334739085;100.303735206
Q58303536;5262;16.517469;104.124283
Q110805794;5259;14.4625;100.5452
Q7125389;5251;14.73468652;102.056639808
Q108764817;5250;15.8933;104.1818
Q15272693;5242;19.094462448;100.809691711
Talat Chaiya;5216;9.38809683;99.19624333
Talat Chaiya;5216;9.3911;99.2008
Q15382312;5212;13.424805555;99.955888888
Q102347647;5208;17.8005;101.9448
Q15199383;5200;8.26893959;100.08918212
Q16363568;5200;15.2348;100.6524
Q110218406;5195;16.7649;104.4932
Q28771794;5174;15.962388888;102.541888888
Q45032348;5160;17.085705;103.820396
Q13025182;5158;14.636275776;101.258666216
Q45032348;5112;17.085705;103.820396
Q101635449;5100;18.0951;98.6615
Q108730989;5092;13.6554;100.1624
Q28732664;5086;19.345286308;99.813791333
Q26206754;5083;16.801956;102.340353
Q109588369;5081;6.2235;101.5033
Q21914307;5079;;
Q13025251;5074;8.8584;98.8122
Q15257719;5074;15.198770452;103.756677954
Q26205729;5070;16.732149;102.803269
Q20680182;5064;15.71333333;100.13527778
Q2055930;5062;6.477482149;101.42550269
Q15244288;5050;15.002543119;102.271385025
Q109837737;5044;6.761;101.3012
Q18278180;5036;;
Q15221497;5032;15.005380948;100.32640168
Q15273756;5030;;
Q20680182;5016;15.71333333;100.13527778
Q19001445;5014;19.3645;99.2022
Q112143782;5012;16.9348;102.2614
Q21914307;5011;;
Q15199350;5010;8.313205806;99.363087253
Q109837682;5009;6.8842;99.7875
Q18278180;5005;;
Q99378871;4992;8.75009;99.276672
Q28727678;4990;15.845277777;103.376666666
Q28727678;4990;15.845597422;103.381452298
Q19838150;4974;;
Q37789131;4962;17.337586;103.469071
Q16440427;4954;14.368005153;100.671342735
Q13025319;4949;14.718475183;104.194452865
Q37789131;4947;17.337586;103.469071
Q22693745;4939;17.053;104.6785
Q26700419;4930;12.7832;101.7969
Q19001445;4921;19.3645;99.2022
Q23009156;4914;17.57969;104.594471944
Q6401844;4913;11.7763;102.88575
Q28574152;4909;13.625168;99.583122
Q26700423;4903;12.7098;101.7099
Q109588376;4902;6.6025;101.6325
Q110821599;4899;14.2151;100.5786
Q15995629;4897;12.9728;101.2143
Q23009156;4895;17.57969;104.594471944
Q15382312;4894;13.424805555;99.955888888
Q100989245;4884;16.7202;104.7505
Q28944154;4878;14.3887;103.1082
Q15899774;4865;15.41827942;102.229910505
Q108764767;4846;16.0329;104.3398
Q23009156;4839;17.57969;104.594471944
Q28729596;4832;16.96438645;102.276830011
Q15198942;4829;8.490541561;99.840416699
Q13025295;4828;13.010157678;100.052319437
Q99380069;4825;8.7072;99.3311
Q28944154;4821;14.3887;103.1082
Q13025301;4811;13.1638;100.8079
Q13025274;4799;14.798543376;104.464913382
Q13025233;4780;13.715606184;102.461373892
Q28599020;4753;7.776210625;100.317871245
Q28599020;4753;7.777777777;100.321388888
Q108764719;4751;15.5316;104.2437
Q37854934;4749;15.834892;101.972118
Q25139388;4738;16.5972;101.9946
Q4986833;4732;5.848732;101.880553
Q43129592;4717;16.969333;102.896395
Q15244570;4716;14.60005885;101.885669784
Q37854934;4702;15.834892;101.972118
Q106962672;4696;14.588913295;100.630260617
Q103493481;4626;16.8229;100.4255
Q108365834;4601;17.2255;99.0507
Q41798807;4596;7.52094;99.990049
Q22693745;4595;17.053;104.6785
Q28721656;4585;18.628333333;98.895833333
Q64869373;4579;14.044396;99.814867
Q28772807;4577;16.097302678;102.443008282
Q13025332;4576;15.41430131;102.550535725
Q43129592;4564;16.969333;102.896395
Q15978514;4562;8.967610348;98.83791372
Q112055660;4562;17.4677;100.3324
Q15978514;4555;8.967610348;98.83791372
Q64869373;4552;14.044396;99.814867
Q17121366;4548;15.501951819;102.561436742
Q113610572;4534;15.7866;102.1959
Q27898006;4531;;
Q13025241;4525;17.0352;99.8871
Q17121366;4517;15.501951819;102.561436742
Q108764647;4505;15.365;104.3563
Q15303457;4504;15.308800496;101.973149797
Bueng Kan;4494;18.3669;103.6552
Q27898006;4483;;
Q18290851;4482;;
Q13025311;4463;8.146868885;99.891824296
Q13025294;4457;8.044176211;100.305876888
Q18290851;4457;;
Q15208051;4432;7.4298;100.1761
Q13025212;4424;8.521391865;99.94429958
Q28731999;4423;15.0338;102.9131
Q43225047;4420;16.961758721;102.89837342
Q37422376;4410;17.4235;103.6057
Q26205677;4382;16.521234729;102.223132753
Q28731238;4378;8.071388888;98.999444444
Q28731238;4378;8.072306749;99.002215357
Q51135838;4362;18.7534;99.9827
Q28721858;4339;14.667222222;100.408888888
Q28732633;4337;16.753443094;100.115909381
Q111296610;4324;17.8018;98.9471
Q37422376;4318;17.4235;103.6057
Q25559364;4310;16.6156;101.926
Q13025261;4304;14.851652107;101.656534678
Q30091900;4303;15.5815;102.831111111
Q30091900;4298;15.5815;102.831111111
Q28572832;4297;16.592216;99.857831
Q80134638;4261;13.912983;99.75576
Q80134638;4255;13.912983;99.75576
Q70319309;4254;13.44723;100.99337
Q108319023;4238;16.686;99.2544
Q70319309;4236;13.44723;100.99337
Q13025188;4235;9.2083;99.8644
Q98996091;4219;15.572381;101.851962
Q51135838;4208;18.7534;99.9827
Q107699698;4208;13.8897;99.8332
Q15244542;4186;14.957328371;101.950332848
Q15303454;4173;15.011447135;102.414026078
Q15980713;4172;13.992105887;101.717442558
Q37788230;4166;17.3291;104.3445
Q15212053;4165;12.868433248;100.004461435
Q37788230;4161;17.3291;104.3445
Q28771900;4159;16.08063889;102.40088889
Q21914293;4157;17.070549;102.495953
Q112155641;4150;10.4582;99.1291
Q111602504;4138;18.7019;98.9162
Q26205777;4136;16.758622356;102.631483748
Q16560106;4120;17.8566;102.6912
Q13025282;4103;15.355134092;101.691680918
Q108764782;4099;16.074;104.139
Q21914293;4096;17.070549;102.495953
Q42108582;4093;19.1455;99.6215
Q16560106;4083;17.8566;102.6912
Q65280599;4080;19.9922;100.0348
Q15839184;4079;9.7425;99.9961
Q13025252;4075;14.928153531;104.399505815
Q15980702;4060;14.3273;100.4049
Q13025324;4050;8.285055363;98.656602659
Q42108582;4048;19.1455;99.6215
Q109837694;4039;6.6553;99.9837
Q15383176;4034;16.9843;98.5172
Q15272704;4032;18.540137271;100.790270204
Q15199267;4029;8.546832971;99.52870222
Q99390806;4021;8.617201;98.970138
Q107671549;4016;17.127;102.8171
Q19823085;4014;14.415821897;103.102407082
Q37864271;4013;15.392662171;101.450701929
Q101229272;4008;19.3613;98.9626
Q28772817;4002;16.090936;102.615079
Q105955544;3999;17.477607271;102.667327793
Q37864271;3996;15.392662171;101.450701929
Q19823085;3993;14.415821897;103.102407082
Q15899767;3987;15.409136365;102.10619657
Q104772418;3979;7.07401;100.4507
Q13025196;3961;7.965333;99.998909
Q13025270;3958;19.149602659;100.946499789
Q105955779;3952;17.503401257;102.509839636
Q63966259;3946;13.74281;99.916221
Q64341969;3946;17.512;99.16
Q15240700;3940;15.789198;103.029881
Q63966259;3932;13.74281;99.916221
Q1743446;3926;14.219686418;99.07571365
Sangkha;3920;14.636758;103.853139
Q64341969;3909;17.512;99.16
Q105859926;3907;13.546702672;99.440135884
Q15258030;3896;14.619;104.4349
Sangkha;3895;14.636758;103.853139
Q108764529;3890;16.1991;104.5307
Q15980713;3884;13.992105887;101.717442558
Q13025199;3858;14.874583973;101.569154109
Q108131641;3857;15.653175273;104.308285953
Q99380732;3855;8.748224;99.356534
Q101229229;3855;19.4448;98.9662
Q15207967;3850;7.761074;99.515512
Q15243204;3836;17.008684;99.58202
Q15977653;3811;15.541339009;102.565843029
Q97309710;3808;17.829277;102.606083
Q13025227;3796;;
Q99003853;3790;9.3854;99.1787
Chiang Khong;3774;20.2588;100.4081
Q15980702;3771;14.3273;100.4049
Q15997463;3769;12.927119028;101.526457171
Q28771893;3765;16.127047402;102.544017762
Q15997463;3762;12.927119028;101.526457171
Q15154799;3733;10.402;98.7728
Q15310472;3733;20.1397;99.857
Q15977653;3727;15.541339009;102.565843029
Q105955609;3718;17.422623417;102.419886338
Q108319033;3706;16.018;98.8652
Q13025243;3698;13.0496;99.9188
Q15977651;3698;15.603050509;102.124983757
Bo Pla Thong;3695;14.633833394;101.884418742
Q15890128;3676;14.591459089;102.141253042
Q110755357;3648;16.2166;99.7305
Q15980677;3638;;
Q15240697;3630;16.324253888;103.296736111
Q14211528;3628;15.132561794;105.460058416
Q26205760;3625;16.8012;102.1868
Q16335071;3617;13.961362425;101.51179329
Q15977651;3609;15.603050509;102.124983757
Q15861702;3602;15.258259874;102.414327541
Q112143765;3601;17.0175;102.4115
Pai;3598;19.359324083;98.436883906
Q107699391;3593;13.8708;99.8181
Q15199388;3572;;
Q13025202;3568;15.120574679;102.278502137
Q13025289;3561;14.056812932;99.731096082
Q16335071;3518;13.961362425;101.51179329
Q26206127;3503;16.6453;101.898
Q15980681;3503;15.046133;100.53579
Q111902448;3499;13.793;101.6417
Q15217904;3480;14.52777778;100.12472222
Q28727752;3473;15.4548;99.5634
Q109837766;3471;5.940555555;101.768805555
Q15272689;3467;19.388348324;100.878089212
Q15141861;3455;16.568341;100.635563
Q28732638;3452;16.189444444;100.859722222
Q102347608;3451;18.0188;101.8818
Q110216956;3449;16.4274;104.3382
Q13025266;3434;16.0202;100.5687
Q15244588;3433;15.195988;102.070189
Q13025307;3431;;
Q111296664;3422;18.0135;98.8843
Q66132624;3415;17.7088;100.3463
Q15977623;3397;8.884129313;99.31536798
Q15996034;3384;12.7813;101.2926
Q104590932;3375;8.3944;98.2599
Q45215299;3362;13.617469;100.945642
Q15977623;3358;8.884129313;99.31536798
Q28729510;3355;18.068165;102.263592
Q28729510;3355;18.063888888;102.273611111
Q45215299;3346;13.617469;100.945642
Q23304273;3332;15.511963888;104.725128055
Q16390436;3312;14.533723619;100.529282296
Q13025209;3310;8.592007123;99.803071066
Q16390436;3304;14.533723619;100.529282296
Q15980677;3304;;
Q15980681;3287;15.046133;100.53579
Q20876671;3274;14.849;100.4442
Q13025257;3273;17.354967799;99.992068049
Q13025300;3268;15.051183511;104.035639412
Q13025325;3267;14.5501;100.8444
Q15310423;3267;15.3154;105.1606
Q28113289;3263;9.939113;99.039069
Q110516059;3243;12.1896;102.4632
Q109837642;3239;7.1092;99.7559
Q110517584;3238;12.382;102.3813
Q108319079;3228;16.052;98.8419
Q20876671;3219;14.849;100.4442
Q110805849;3218;16.350291045;99.584828485
Wong Khong;3210;17.102731;100.163154
Q23304273;3199;15.511963888;104.725128055
Q15839181;3179;9.7021;100.032
Q15996034;3172;12.7813;101.2926
Q13025307;3152;;
Q13025189;3128;15.112156104;104.139228309
Q15272681;3110;18.570665579;100.751225854
Q108764740;3074;15.8308;104.384
Q15980716;3073;17.6546;100.0363
Q111296813;3070;17.7365;99.0367
Q28771805;3067;15.8025;102.422888888
Q15978508;3067;9.570645;99.166044
Q28854824;3059;16.4031;100.3942
Q26206074;3056;16.6517;102.3751
Q28732162;3045;12.009662;102.367097
Q13025214;3044;8.6691;99.924
Q16325321;3034;9.781259973;99.112136883
Q56811296;3031;19.211735;99.52611
Q11960114;3020;13.586775;100.103663
Q13025273;3009;14.282302508;99.897864475
Q15980716;3003;17.6546;100.0363
Huai Kon;3003;;
Q28732564;2991;16.27788;101.95395
Q108764542;2964;16.1919;104.516
Q56811296;2958;19.211735;99.52611
Q16325321;2957;9.781259973;99.112136883
Q15978508;2934;9.570645;99.166044
Q104772455;2912;7.0516;100.4502
Q98949762;2901;14.131046;100.812854
Q17297862;2900;;
Q13025245;2891;14.853734027;104.035354601
Q37789980;2890;17.2913;103.6469
Q15904167;2882;15.343764833;102.441294162
Q21665598;2877;16.9514;102.5761
Q16325379;2865;11.206634782;99.510200298
Q17297862;2858;;
Q15904167;2848;15.343764833;102.441294162
Q104713902;2843;7.5852;100.3198
Q16746771;2829;15.005843;102.568511
Q4856861;2828;6.266048819;101.26624625
Q104713917;2825;7.6319;100.33
Q16746771;2817;15.005843;102.568511
Q13025254;2812;8.560122935;99.606819368
Q15199329;2808;8.26046277;99.596418289
Q56006290;2802;18.0228;103.0826
Q104591006;2793;8.0695;98.5855
Q104889545;2793;14.7186;100.4365
Q37789980;2787;17.2913;103.6469
Q21665598;2784;16.9514;102.5761
Q16746771;2784;15.005843;102.568511
Q28732551;2775;16.3;103.977777777
Q13025283;2768;12.948242802;99.967952047
Q16000037;2748;13.959249731;100.857905996
Q14635071;2741;15.3194;105.4906
Q110216930;2738;16.4546;104.3899
Q15989168;2735;16.318734189;104.918162173
Q56006290;2723;18.0228;103.0826
Q102077692;2703;10.1128;98.7545
Q15896459;2679;14.9036459;101.887062
Q15199217;2669;8.425599956;99.504523656
Q16325379;2665;11.206634782;99.510200298
Q100989342;2665;16.6788;104.7478
Q110477173;2660;12.1983;102.6617
Q16000037;2657;13.959249731;100.857905996
Q15978632;2646;8.57298;99.2495
Q16513029;2641;14.1668;100.3134
Q13025219;2639;18.325830549;100.712174685
Q110477132;2622;12.2288;102.6415
Q73295072;2618;6.483694444;101.133361111
Q15989168;2616;16.318734189;104.918162173
Q73295072;2601;6.483694444;101.133361111
Q16513029;2595;14.1668;100.3134
Q43975459;2582;16.204611111;102.764888888
Q107686208;2570;19.1769;99.6213
Q104671296;2553;9.9467;98.5964
Q15978632;2550;8.57298;99.2495
Q43975459;2549;16.204611111;102.764888888
Q110032906;2540;16.03659366;103.746337295
Q78781152;2508;9.849336109;98.612552138
Q15989171;2507;16.579159992;104.419009364
Q13025346;2506;13.9782;100.3135
Q15244613;2468;15.443673197;102.328461644
Q13025340;2462;8.463384308;99.496047333
Q15978511;2447;8.9034;98.8845
Q15978511;2427;8.9034;98.8845
Q15989171;2424;16.579159992;104.419009364
Q106994867;2414;14.680826813;100.708168535
Q111297088;2409;17.6392;98.7852
Q28735472;2387;13.8475;101.053055555
Q101229182;2365;19.4809;98.9595
Q109837730;2358;6.7304;100.0647
Pai;2314;19.359324083;98.436883906
Q109876363;2255;8.0055;99.6439
Q95388743;2241;13.467318888;99.948751944
Q49168904;2233;14.8113;100.5117
Q112516805;2227;18.0971;99.8555
Q58394424;2217;13.8677;100.2097
Q49168904;2195;14.8113;100.5117
Q96278553;2193;14.069436;101.462347
Q16325318;2178;10.671607646;99.181221158
Q109837749;2178;7.7312;99.3228
Q58394424;2157;13.8677;100.2097
Q65122985;2155;13.871472222;101.140944444
Q42108582;2150;19.1455;99.6215
Q16390164;2149;14.646037131;100.575466641
Q15839187;2140;10.07331;99.829001
Q28771813;2130;15.854744;102.896712
Q65122985;2113;13.871472222;101.140944444
Q65123011;2094;14.116083333;99.148111111
Q65123011;2091;14.116083333;99.148111111
Q16390164;2082;14.646037131;100.575466641
Q16325318;2065;10.671607646;99.181221158
Q95388756;2005;13.448996;99.903256
Q22262125;2000;14.378425832;101.869784635
Q108269030;1999;15.4144;101.8404
Q22262125;1965;14.378425832;101.869784635
Q110755349;1949;16.221;99.7175
Q15978510;1947;9.0326;98.9639
Q15978510;1943;9.0326;98.9639
Q13025230;1906;8.343775907;100.066983148
Q15861689;1898;15.280917985;102.300556039
Q13025318;1897;8.170721251;100.147769345
Q15199035;1855;8.367729214;99.799978369
Q91897806;1792;13.507067;99.917602
Q15978537;1785;8.8463;99.1971
Q110217025;1785;16.4845;104.3459
Q110516031;1771;12.1743;102.3952
Q95389037;1765;13.487583;99.923328
Q15978537;1724;8.8463;99.1971
Q65122442;1669;13.9655;100.963444444
Q65122442;1635;13.9655;100.963444444
Q102076684;1605;9.5829;98.5941
Q69270048;1558;6.047452;101.165886
Q69270048;1525;6.047452;101.165886
Q110755353;1499;16.2657;99.6907
Q16325322;1480;9.786579594;98.776852091
Q65122996;1472;13.835788;100.963527
Q65122996;1462;13.835788;100.963527
Q42310111;1418;13.4522;99.8852
Q28732635;1417;16.578333333;100.300277777
Q28732635;1417;16.58129297;100.295869732
Q16325319;1407;10.704344318;99.320496217
Q42310111;1396;13.4522;99.8852
Q110517624;1388;12.3541;102.4353
Q13025185;1370;18.565783307;100.73596464
Q16325319;1370;10.704344318;99.320496217
Q13025185;1359;18.565783307;100.73596464
Q28731220;1186;7.530277777;99.094194444
Q104590988;827;8.1187;98.5905
Q63966671;736;14.516465;100.859403
Q112055650;721;17.9938;100.8771
Q63966671;719;14.516465;100.859403
Q106808991;592;15.3615;99.9379
Wat Pathum Wanaram;;13.74592;100.53666
Wat Chai Watthanaram;;14.343055555;100.541944444
Wat Saket;;13.75383;100.50679
temple des tigres;;14.115833333;99.231388888
Wat Benchama Bophit;;13.766111111;100.514169444
Wat Suthat;;13.75105;100.50107
Q2242870;;13.743661111;100.509680555
Q2484362;;17.16466667;104.15319444
Walking Street;;12.9255;100.871
Q2552237;;14.589722222;100.456111111
Q2552251;;13.847902777;100.484313888
Q2552253;;17.018611111;99.703972222
Q2552258;;16.504713888;99.506216666
Q2552259;;14.717983333;100.436830555
Wat Aranyik;;16.82638889;100.27805556
Q2552262;;13.7422;100.504158333
Q2552264;;14.086666666;100.524722222
Q2552271;;13.746502777;100.479433333
Q2552274;;6.262;102.050003055
Q2552275;;16.82444444;100.26861111
Q2552273;;16.788111111;100.217097222
Q2552279;;12.67888889;101.28277778
Q2552287;;6.52725;101.22335
Wat Chet Yot;;18.809083333;98.97165
Q2552298;;14.481666666;100.448333333
Q2552296;;17.016883;99.703698
Q2552305;;14.474586111;100.094108333
Q2552310;;13.912652777;100.489691666
Wat Na Phra Men;;14.3625;100.55888889
monastère Nānājāti;;15.16527778;104.77625
Q2552319;;15.15905556;104.82794444
Q2552319;;15.159166666;104.828055555
Q2552325;;16.48805556;99.5175
Q2552338;;13.733151;100.496806
Q2552340;;16.499;99.514858333
Q2552341;;15.676944444;104.854166666
Q2552345;;14.34416667;100.57888889
Q2552349;;14.35416667;100.56166667
Q2552354;;8.411388888;99.966666666
Q2552352;;16.487252777;99.520319444
Q2552358;;13.874236111;100.593375
Q2552367;;13.839166666;100.451666666
Q2552369;;18.576138888;99.019883333
Q2552374;;18.577430555;99.008188888
Q2552379;;14.35861111;100.56722222
Q2552382;;13.749567;100.49551606
Q2552394;;13.662011111;100.535641666
Q2552392;;13.76064468;100.51051497
Q2552399;;13.99995;99.50345
Q2552401;;14.348680555;100.578483333
Wat Suan Dok;;18.788219444;98.967697222
Q2552410;;13.75333333;100.50444444
Q2552414;;14.34527778;100.5925
Q2552417;;12.788888888;100.958055555
Q2552433;;13.738083333;100.513975
Q2681283;;18.420138888;98.67875
Q3090866;;18.910880555;98.941311111
Wat Dhammachaksemaram;;14.916786;101.794103
Wat Kamphaeng Laeng;;13.105555555;99.956111111
Q4026688;;20.442836;99.877997
Q4105234;;15.132989;98.444952
Q4837157;;14.34069;100.57721
Q4837157;;14.34;100.58
Q4853579;;16.566666666;100.3
Q4853597;;16.617222222;100.348888888
Q4853606;;16.608333333;100.375
Q4853635;;16.636944444;100.405555555
Q4853707;;16.596388888;100.350555555
Q4854968;;14.9;100.31666667
Wat Kalayanamitr;;13.739885;100.491359
Q179974;;13.742334;100.499139
Q288594;;13.776111111;100.320833333
Khao Lak;;8.629911111;98.244313888
Wat Chalong;;7.84666667;98.33666667
Q475254;;19.91583333;99.82305556
Wat Rong Khun;;19.82424;99.76329
Wat Phra That Lampang Luang;;18.217219444;99.388888888
Wat Phumin;;18.774669444;100.771591666
Q644043;;14.33944444;100.55972222
Wat Doi Mae Pang;;19.212434;99.187123
Wat Hua Lamphong;;13.73193;100.52912
Wat Mahathat;;14.356944444;100.5675
Q663107;;14.35555556;100.5525
Wat Arun;;13.743688888;100.488919444
Wat Phra Si Sanphet;;14.35583333;100.55833333
Ban Non Wat;;15.27441509;102.2688961
Bang Saen;;13.26666667;100.93333333
Wat Phra Kaeo;;19.9118;99.8279
Vat Lokmoli;;18.796238888;98.982638888
Q972332;;9.67444444;100.06611111
Khao I Dang;;13.8939;102.668
Q5970628;;17.128888888;98.380555555
Q6424164;;8.335299673;98.503466207
Q6630298;;13.744166666;100.51
Q6630373;;14.06916667;100.6475
Q6630393;;18.758245;100.79169
Q6630396;;17.143916666;104.16415
Q6630403;;9.384603055;99.184198888
Q6630425;;19.9109;99.8314
Q6630439;;14.967267;102.074325
Q6630499;;13.49368;101.15567
Wat Chedi Liam;;18.753999;98.995665
Wat Sothonwararam;;13.673729;101.067309
Q6630582;;13.363635;100.987658
Q6648577;;13.75;100.57694444
Q6710654;;8.124;98.92518
Nong Chan;;13.831944444;102.733333333
Sa Kaeo;;13.836634;102.047074
Q7506714;;13.74555556;100.53416667
Wat Bang Nom Kho;;14.32233;100.42524
Wat Bang Phra;;13.89759;100.21259
Q7972936;;15.302671;99.754191
Q7972937;;14.3632;100.59005
Q7972943;;16.82238;100.26207
Q7972947;;14.61835;104.41876
Q7972959;;17.876944444;102.575277777
Q7972962;;15.03238;99.45597
Q7972963;;13.27213;100.94062
Q7972964;;15.895208055;104.729323888
Q7972965;;14.714166666;100.791666666
monastère Mokkhabalārāma;;9.360275;99.169794444
Q10298484;;13.701111111;100.540277777
Q10834362;;14.838055555;100.6825
Q10834360;;13.68798;100.61558
Q10834364;;14.356944444;100.553055555
Q10921868;;13.724166944;100.508333055
Q10921869;;13.722008;100.515515
Q11325160;;15.85;98.666666666
Q13014945;;13.759688888;100.512130555
Q13014949;;13.716488888;100.473861111
Q13015601;;17.655207;100.211511
Q13017426;;18.769583333;100.750583333
Q13020627;;16.933055555;99.956111111
Q13020631;;15.05063;100.56643
Q13020628;;14.3517;100.5447
Q13020629;;16.43517;103.50252
Q13020635;;13.74231;100.50815
Q13020633;;18.807319;98.945584
Q13020638;;15.403055555;105.260833333
Q13020639;;17.044722222;99.871944444
Q13020636;;17.011666666;99.7825
Q13020637;;19.345277777;100.1125
Q13020642;;19.329904;100.116601
Q13020643;;14.572194444;100.530722222
Q13020640;;13.77228;100.49584
Q13020641;;17.046388888;99.891666666
Q13020646;;17.176666666;99.865
Q13020647;;17.613951944;100.097223055
Q13020644;;11.750833333;99.789444444
Q13020645;;17.203639;99.681644
Q13020650;;18.667997;99.925243
Q13020651;;17.010555555;99.815555555
Q13020648;;8.935503;99.246201
Q13020649;;17.03707;99.8849
Q13020654;;13.7226;100.48113
Q13020655;;13.763888888;100.636388888
Q13020652;;13.70017;101.09123
Q13020653;;19.074444444;98.305277777
Q13020659;;13.901066;100.508165
Q13020656;;13.732275;100.461883
Q13020657;;6.610818;100.064334
Q13020662;;17.406666666;100.045277777
Q13020663;;14.236928;100.58122
Wat Phra Kaew;;13.751388888;100.492777777
Wat Pho;;13.746388888;100.493611111
Q1111480;;13.717333333;100.513555555
Q1145686;;13.931453;100.506865
Wat Buppharam;;18.78795;98.998208333
Khaosan;;13.758888888;100.497222222
Q1263413;;13.814175;100.092658333
Q1284028;;16.884811111;99.120486111
Q1295011;;12.785080555;101.647397222
Q1364089;;16.821722222;100.261161111
Q1369391;;18.78366667;98.95338889
Q1395072;;13.752683333;100.485441666
Q1403433;;14.593644444;100.380363888
Q1410108;;14.450833333;100.462222222
Q1416391;;13.76305556;100.47722222
monastère Kesarasīlaguṇa;;17.295833333;102.775277777
Q13020660;;13.744722222;100.505833333
Q13020661;;16.032712;100.382042
Q13020666;;15.167222222;100.415833333
Q13020665;;17.714166666;100.109444444
Q13020670;;13.769767;100.309021
Q13020671;;17.168055555;99.77
Q13020668;;14.699166666;100.843611111
Q13020674;;17.017576;99.70917
Q13020675;;13.768333333;100.491388888
Q13020672;;17.653646;100.121924
Q13020678;;7.561111;99.599722
Q13020679;;16.590833333;100.441944444
Q13020677;;16.528611111;102.036944444
Q13020683;;13.871115;101.405561
Q13020681;;18.775012694;98.948659194
Q13020686;;7.96644;99.744558
Q13020687;;7.785659;99.51458
Q13020684;;14.38906;100.53649
Q13020685;;14.914444444;100.495833333
Q13020690;;13.8442;99.86512
Q13020691;;14.35804;100.54342
Q13020689;;18.889967;99.002383
Q13020694;;19.001666666;100.281111111
Q13020695;;17.62;100.098611111
Q13020693;;16.440026;100.352312
Q13020696;;13.7325;100.507777777
Q13020697;;14.950555555;100.479444444
Q13020702;;13.769444444;100.5025
Q13020703;;19.528333333;100.302777777
Q13020700;;15.248611111;100.084166666
Q13020701;;14.801206;100.61534
Q13020706;;14.2310913;100.5759984
Q13020707;;8.773888888;98.442777777
Q13020705;;13.703333333;100.466388888
Q13020710;;14.38268;100.56757
Q13020711;;13.6;100.405277777
Q13020708;;15.986944444;105.111666666
Q13020709;;14.764166666;100.602777777
Wat Bang Kung;;13.446111111;99.941111111
Q13020715;;13.742166666;100.50775
Q13020713;;14.917702;100.492405
Q13020718;;17.041944444;99.883888888
Q13020719;;13.30887;101.11491
Q13020716;;14.141111111;100.114722222
Q13020722;;15.046111111;100.538611111
Q13020723;;13.9325;100.725
Q13020720;;13.755444444;100.495972222
Q13020721;;17.014032;99.762286
Q13020726;;14.129567;100.723617
Q13020724;;14.363842;100.586543
Q13020725;;13.691388888;100.141111111
Q13020730;;13.803055555;100.335833333
Q13020728;;13.263888888;99.941666666
Q13020729;;17.629986944;100.122536944
Q13020732;;14.807777777;100.614444444
Q13020733;;16.735;103.671111111
Q13020738;;17.658941;100.158114
Q13020739;;16.395;100.598333333
Q13020736;;14.24498;101.31918
Q13020737;;17.151388888;104.138055555
Q13020742;;14.847095;100.908186
Q13020743;;17.026889;99.885048
Q13020741;;14.99;100.62
Q13020747;;18.79873;98.94668
Q13020744;;19.184032;99.888458
Q13020750;;14.356166666;100.60175
Q13020749;;20.28615;100.07422
Q13020754;;19.30013;97.96013
Q13020755;;13.774126;99.308437
Q13020753;;18.759722;98.918056
Q13020758;;18.8454;98.9777
Q13020759;;19.498333333;100.324444444
Q13020756;;17.975431;100.015295
Q13020757;;17.60046;100.05542
Q13020762;;18.143804;100.140671
Q13020763;;16.47967;99.51032
Q13020760;;17.951472222;98.605583333
Q13020761;;19.686111111;100.194166666
Q13020766;;13.118888888;100.947222222
Q13020767;;17.02913;99.699402
Q13020765;;14.976098;102.10829
Q13020770;;20.32443;99.83285
Q13020771;;14.46097;100.94917
Q13020768;;17.638333333;100.227222222
Q13020769;;15.16027;100.15181
Q13020774;;14.377896;100.553809
Q13020772;;13.759903;100.593798
Q13020776;;17.429072;99.810748
Q13020782;;13.764166666;100.506666666
Q13020783;;13.865833333;100.077777777
Q13020780;;13.7761;100.46949
Q13020781;;13.650555555;100.472777777
Q13020786;;17.598611111;100.043611111
Q13020785;;16.87862;99.12177
Q13020790;;14.533333333;100.125
Q13020789;;17.703611111;102.774722222
Q13020795;;15.235;104.863333333
Q13020792;;16.185277777;103.306944444
Q13020793;;15.794;104.142083333
Q13020798;;8.495277777;99.984722222
Q13020799;;13.546606;99.814339
Q13020796;;13.732627;100.516673
Q13020797;;13.105515;99.946943
Q13020802;;17.415555555;102.790555555
Q13020803;;18.283828;99.514186
Q13020801;;7.194739;100.592339
Q13020807;;16.959444444;99.828888888
Q13020805;;17.086944444;99.884444444
Q13020808;;7.198277777;100.589666666
Q13020809;;17.719848;100.272957
Q13020814;;13.39353;101.01568
Q13020815;;16.989444444;99.875555555
Q13020813;;17.009722222;99.818333333
Q13020818;;13.580555555;100.744166666
Q13020819;;15.71528;100.13374
Q13020816;;14.687222222;100.055
Q13020817;;14.554691666;100.755030555
Q13020822;;14.352503;100.531848
Q13020823;;17.884722222;102.751111111
Q13020820;;16.401944444;100.3925
Q13020821;;16.363526;100.654339
Q13020826;;17.3875;100.098611111
Q13020827;;16.980555555;99.831388888
Q13020824;;16.99689;99.493278
Q13020830;;17.549654;100.123922
Q13020831;;17.093333333;99.699444444
Q13020829;;16.971823;99.8517
Q13020834;;18.599444444;99.030277777
Q13020835;;15.666949;100.108355
Q13020832;;17.027078;99.693289
Q13020839;;17.06937;99.83935
Q13020836;;13.41617;100.98958
Q13020837;;15.228055555;104.856111111
Q13020842;;13.54048;99.81589
Q13020843;;17.002222222;99.571111111
Q13020840;;15.19187;103.758397
Q13020841;;16.228055555;103.383888888
Q13020846;;17.002058;99.830727
Q13020847;;18.814249;98.945654
Q13020844;;19.176666666;99.889722222
Q13020850;;14.965277777;102.108611111
Q13020851;;15.543188;103.016684
Q13020848;;17.502777777;99.871944444
Q13020849;;14.98068;102.116658055
Q13020854;;13.8625;100.442222222
Q13020855;;14.352886;100.547763
Q13020852;;13.794444444;100.481388888
Q13020858;;14.05863;100.536816
Q13020859;;18.094166666;99.832777777
Q13020856;;19.491666666;98.973888888
Q13020857;;13.53935;99.82737
Q13020862;;15.083315;99.71731
Q13020863;;14.740277777;100.096111111
Q13020860;;15.376173;100.0175
Q13020861;;17.021111111;99.595555555
Q13020866;;17.090555555;99.676666666
Q13020867;;17.896666666;102.770277777
Q13020864;;13.765833333;100.498888888
Q13020865;;18.831361;99.079352
Q13020871;;14.7925;100.608055555
Q13020868;;14.5025;100.123888888
Q13020869;;15.248611111;101.195555555
Q13020874;;13.55357;100.9061
Q13020875;;13.530555555;100.263611111
Q13020872;;14.85349;100.37009
Q13020873;;14.05358;100.540795
Q13020878;;14.826666666;100.772222222
Q13020879;;13.739452;100.48806
Q13020876;;10.492777777;99.176388888
Q13020877;;7.848055555;98.298055555
Q13020882;;17.304316;100.072357
Q13020883;;13.505277777;101.165555555
Q13020880;;17.584722222;100.093611111
Q13020881;;14.634444444;102.931388888
Q13020887;;18.777125;100.771247
Q13020884;;6.6675;100.073888888
Q13020885;;17.030277777;99.883333333
Q13020890;;17.658931;100.182629
Q13020891;;13.7342627;100.49799442
Q13020888;;14.362851;100.5577
Q13020889;;20.164008055;99.995486944
Q13020894;;16.469166666;99.481111111
Q13020895;;13.716388888;100.454444444
Q13020892;;16.180277777;103.3125
Q13020898;;14.971666666;100.524166666
Q13020899;;17.434164;99.784635
Q13020896;;18.79245;99.00289
Q13020897;;19.543055555;99.739444444
Q13020902;;16.319166666;100.393333333
Q13020903;;17.673055555;100.033611111
Q13020900;;13.301111111;99.9025
Q13020901;;14.968055555;100.693333333
Q13020906;;7.752222222;100.066944444
Q13020907;;14.900833333;100.507777777
Q13020904;;7.499962;100.192148
Q13020905;;15.161666666;101.280555555
Q13020910;;13.54248;99.9222
Q13020911;;13.747112;100.51383
Q13020908;;17.433535;99.782158
Q17451003;;14.300833333;100.743888888
Q17468552;;14.234213;101.271614
Q17486304;;14.527757;100.927232
Q17487895;;14.818667;101.302814
Q17507125;;13.814722222;99.501944444
Q17562175;;13.856388888;99.818888888
Q17571274;;16.593187;99.598548
Q17637232;;18.748072222;99.001952777
Q18046080;;18.789472;98.988466
Q18104685;;13.505833333;99.917777777
Q18108137;;14.562222222;100.718888888
Q18112407;;14.398655;100.979767
Q18112474;;13.814722;100.096944
Q18121520;;13.42621;99.95367
Q18121549;;13.414166666;99.963333333
Q18148044;;6.825833333;101.491666666
Q18159429;;14.12893;99.70385
Q18175473;;14.346245;100.993337
Q18176947;;14.653715;100.219453
Q18176961;;15.687924;104.061177
Q18177707;;13.809646;100.493595
Q18180971;;8.451397;99.96037
Q18191062;;13.74161;100.482495
Q18278554;;13.4666;99.892184
Q18280132;;14.924542;102.035873
Q18291415;;13.686262;99.873832
Q18303465;;13.545246;99.727323
Q18324140;;14.235492;101.246064
Q18328091;;9.143283;99.327227
Q18328099;;9.320169;99.684526
Q18328117;;9.140251;99.323343
Q18330870;;18.150632;100.15103
Q18337807;;13.81625;100.52897
Q18342369;;13.80936;99.787879
Q18342378;;13.815728;99.881759
Q18342388;;18.668657;98.950724
Q18342427;;11.303934;99.546256
Q18346909;;13.48728;99.8349
Q18347198;;13.597621;99.902546
Q18347197;;13.60698;99.763417
Q18352973;;11.034271;99.415651
Q18390138;;11.06707;99.37373
Q18394567;;14.363661111;100.594091111
Q18421751;;11.009405;99.313395
Q18421749;;11.211773;99.510795
Q18437730;;13.99524;100.59719
Q18437752;;14.04982;100.66266
Q18454490;;13.72116;99.84911
Q18454544;;13.726691;99.844798
Q18505540;;13.53877;99.829396
Wat Tan Rueang;;13.628202;100.021295
Q18523832;;12.51857;102.17085
Q18542507;;13.657761111;99.870385
Q18574413;;13.773219444;100.444980555
Q18579164;;18.789736111;98.990744444
Q18608494;;18.793069444;98.990630555
Q18643604;;16.543706111;104.731005
Q18663985;;18.794502777;98.994136111
Q18680596;;18.791308333;98.994630555
Q18694668;;18.78425;98.988888888
Q18702273;;18.787655555;98.991030555
Q18709228;;18.788241666;98.990619444
Q18713202;;18.789655555;98.989872222
Q18719017;;15.235576111;102.097001111
Q18744503;;12.666471944;101.043451111
Q18745025;;12.7045;101.244008055
Q18745029;;12.860113888;100.950233055
Q18749715;;9.042403055;99.040166111
Q18755818;;13.14955;101.109348
Q18756316;;14.539438888;100.924353888
Q18759198;;15.279016;102.94162
Q18822192;;19.606016111;99.571373055
Q18889229;;14.552318055;100.890521944
Q18920949;;18.789636111;98.986833333
Q18928224;;14.076853888;100.891473055
Q18941135;;14.654031111;100.395166944
Q18941330;;14.592206111;100.290156111
Q18956291;;14.007777777;100.708611111
Q19056177;;14.979931944;100.609196944
Q19159898;;18.794003;98.986527
Q19241793;;13.108016944;99.939388055
Q19315819;;13.804722222;100.412777777
Q19360885;;18.65139;99.078325
Q19361900;;13.869228055;99.817601944
Q19364176;;18.795044444;98.985369444
Q19369273;;14.489078055;100.860506944
Q19369294;;14.493328888;100.862788055
Wat Kuson Samakhon;;13.742317;100.507618
Q19404874;;7.572673055;99.624846111
Q19421834;;14.556576944;100.961241111
Q19427224;;13.746485;100.485545
Q28064974;;12.96151;100.894051
Q28072570;;12.978181;100.942916
Q28072628;;13.086669;100.978754
Q28405190;;18.802366666;98.988744444
Q28405193;;18.789194;98.998632
Q28464329;;16.124779;100.305863
Q28735728;;16.388611111;100.538055555
Q19441283;;15.660335;103.249553888
Q19462364;;18.795222222;98.983716666
Q19473270;;18.795213888;98.982616666
Q19568290;;14.676863888;100.081456944
Q19591208;;14.552953055;100.958556944
Q19595206;;13.72799;100.459695
Q19603017;;14.326722222;100.807111111
Q19604798;;14.575746944;100.145716944
Q19623416;;15.433203055;101.068603888
Q19628238;;14.553376944;100.885618888
Q19635273;;14.529286111;100.910118888
Q19635289;;14.562996111;100.933511944
Q19668457;;14.34063;100.998193888
Q19668619;;14.361931;100.55173
Q19682900;;13.901944444;100.471666666
Q19690137;;14.451653888;100.801425
Q19730606;;13.804791111;99.873781944
Q19758856;;13.527222222;100.834444444
Q19803276;;15.460217;104.533648
Q19803289;;14.978755;102.110878
Q19803307;;14.523398888;100.210735
Q19811404;;17.312501944;99.828368888
Q19829066;;14.774293;100.443093
Q19845334;;13.741808055;100.501816944
Q19851179;;13.700813;100.507996
Q19853517;;14.555013055;100.887468888
Q19856526;;17.007384;102.282819
Q19858645;;7.573076111;99.684851111
Q19888884;;15.461866111;100.137881944
Q19969214;;18.789619694;98.982340305
Q19975496;;14.543339;102.608676
Q20045420;;14.785813888;100.896031944
Q20051158;;18.788158333;98.984044444
Q20051690;;18.788116666;98.99215
Q20080924;;17.903072;100.829492
Q20084471;;18.00186;100.884269
Q20088938;;18.788705555;98.984119444
Q20088955;;18.793288888;98.980491666
Q20097857;;18.788741;98.985894
Q20154826;;14.596221944;101.036936944
Q20155141;;18.775999;98.989065
Q20155173;;18.79;98.98
Q20155393;;18.789837;98.981088611
Q20155404;;18.782403888;98.983145305
Q20155454;;18.783115;98.981163888
Q20475796;;18.787672222;98.98755
Q20583674;;13.720833333;100.586388888
Q20642064;;18.800822222;98.934022222
Q20643666;;18.785144444;98.988094444
Q20680041;;18.781977777;98.991338888
Q20682368;;18.782586111;98.992455555
Q20721842;;13.502798888;100.77768
Q20743611;;18.787311111;99.001283333
Q20856249;;19.909702777;99.828852777
Q21014619;;19.910766666;99.832405555
Q21074433;;19.911541666;99.837883333
Q21144797;;14.588875;100.897945
Q21156251;;19.906844444;99.839411111
Q21185853;;19.897630555;99.840083333
Q21192967;;18.144016944;100.134836944
Q21193036;;18.146289;100.138736
Q21193083;;16.287726111;101.065375
Q21281830;;19.838877777;99.793313888
Q21281957;;19.884547222;99.824638888
Q21293458;;13.767228055;100.468656111
Q21296138;;19.887891666;99.829030555
Q21334597;;18.143876944;100.13656
Q21486222;;19.903347222;99.831258333
Q21525146;;19.89935;99.826336111
Q21583221;;19.902416666;99.818436111
Q22062215;;19.908730555;99.801155555
Q22723345;;17.676788888;100.1231
Q23039023;;19.912516666;99.825055555
Q23296514;;13.735;100.215
Q23540784;;19.474218055;99.71442
Q23777322;;13.736943888;100.484515
Q23977974;;14.824426944;104.288283888
Q24067592;;19.917441666;99.788941666
Q24104363;;9.154444444;99.471388888
Q24104718;;9.239722222;99.510833333
Q24105096;;9.2229;99.5972
Q24250242;;13.204581111;100.940838888
Q24250757;;13.499203;100.146295
Q24548298;;14.457717;100.830854
Q24661990;;13.720698;100.484049
Q24702393;;14.407846;100.869593
Q24703275;;13.7578;100.4672
Q24705787;;13.7802;100.468
Q24705800;;13.7602;100.4762
Q24705886;;13.7538;100.4731
Q24706063;;13.7479;100.4831
Q24717454;;13.7672;100.4731
Q24717502;;13.7674;100.4649
Q24717531;;13.7753;100.4656
Q24717567;;13.7436;100.4671
Q24718173;;13.7516;100.4751
Q24718191;;13.7468;100.4775
Q24718210;;13.7631;100.4671
Q24802308;;19.929411111;99.816680555
Q24943539;;17.93055556;101.91416667
Q25036170;;16.424351;99.004294
Q25398925;;9.200473;99.622191
Q25446489;;13.724029;100.469877
Q25447051;;13.73674;100.472139
Q25447306;;13.733089;100.484803
Q25448635;;13.745448;100.484115
Q25449187;;13.733439;100.473655
Q25466053;;8.425;99.963888888
Q25531965;;9.251966;99.681694
Q25532636;;9.378333333;99.261388888
Q25532676;;9.3857;99.1923
Q25537414;;17.146715;99.713651
Q25537545;;13.998888888;100.676666666
Q25538441;;13.033443;101.236307
Q25538913;;18.788336;98.949775
Q25541132;;15.327968;100.071219
Q25542108;;17.64218;100.113008
Q25544714;;18.282803;99.560206
Q26254009;;13.726299;100.514704
Q26254019;;13.731287;100.519502
Q26257024;;8.02668;98.332378
Q26301908;;14.417527;100.886948
Q26387096;;14.278329;100.892394
Q65535335;;14.722222222;101.385833333
Q65535521;;14.706111111;101.404722222
Q65535606;;14.707777777;101.414166666
Q65535619;;14.696111111;101.409722222
Q65535630;;14.701944444;101.421388888
Q65535629;;14.695277777;101.405277777
Q65547641;;14.385833333;100.584166666
Q65548053;;14.534444444;100.694722222
Q66085228;;14.358055555;100.581944444
Q66086042;;13.768611111;100.454166666
Q66098155;;16.581055555;102.5785
Q66098515;;12.703333333;102.233055555
Q66105095;;13.390555555;99.741666666
Q66105161;;13.878333333;102.007222222
Q66105201;;13.617083333;100.407388888
Q66107266;;9.176666666;99.8525
Q66107414;;9.173055555;99.841111111
Q66214664;;17.670833333;100.028055555
Q66219774;;17.599091;100.045727
Q66227403;;17.436166666;100.137444444
Q66228743;;17.660833333;100.030555555
Q66230827;;17.703055555;100.024722222
Q66231703;;17.639166666;100.085
Q66232154;;17.576666666;100.116666666
Q66232460;;17.641666666;100.2525
Q66305808;;17.116944444;103.031944444
Q66305819;;16.964527777;103.186527777
Q66310516;;13.795555555;100.466666666
Q66310941;;13.7;100.489166666
Q66310945;;13.735833333;100.492222222
Q66311266;;13.695555555;100.488611111
Q66311282;;13.696944444;100.488333333
Q66311343;;13.7225;100.48
Q66314339;;13.715444444;100.485555555
Q66314353;;13.719722222;100.471388888
Q66340305;;13.719888888;100.469861111
Q66341194;;13.732611111;100.459944444
Q66345514;;13.73;100.463055555
Q66346509;;13.728888888;100.463333333
Q66350006;;13.717222222;100.466388888
Q66361277;;13.708527777;100.426861111
Q66361381;;13.738611111;100.458611111
Q66361516;;13.679444444;100.4475
Q66362085;;13.674444444;100.449166666
Q66363479;;13.679722222;100.503611111
Q66363570;;13.690277777;100.457777777
Q66363647;;13.696666666;100.457222222
Q66363685;;13.695555555;100.466388888
Q66363694;;13.696;100.466388888
Q66382980;;16.444027777;102.998083333
Wat Charoen Thammaram;;13.925583333;100.637694444
Q66383000;;8.283055555;99.875277777
Q66384819;;13.693055555;100.546666666
Q66385045;;13.740555555;100.460277777
Q66385373;;13.714444444;100.606666666
Q66385406;;13.710833333;100.62
Q66424191;;13.689166666;100.501111111
Q66424188;;13.695833333;100.504166666
Q66424362;;13.675555555;100.5875
Q66424695;;13.713055555;100.522222222
Q66439431;;13.725277777;100.737777777
Q66439488;;13.741388888;100.518611111
Q66439498;;13.7485;100.519305555
Q66439532;;13.749166666;100.508611111
Q66439542;;13.755611111;100.510361111
Q66439683;;13.748333333;100.522777777
Q66455903;;13.7985;100.533805555
Q66456998;;13.794444444;100.521388888
Q66457041;;13.775555555;100.527333333
Q66457162;;13.791277777;100.514861111
Q66457165;;13.782027777;100.510833333
Q66458741;;13.758;100.505694444
Q66458792;;13.708333333;100.563333333
Q66458801;;13.67;100.604166666
Q66465673;;9.214638888;99.568694444
Wat Chong Klang;;19.298166666;97.967388888
Q66477704;;19.302805555;97.966166666
Q66587049;;14.028055555;99.525555555
Q66587079;;14.026666666;99.526388888
Q66587100;;14.016388888;99.531944444
Q66587196;;13.978611111;99.750833333
Q66619425;;17.061388888;99.043888888
Q66619437;;16.081388888;98.753888888
Q66619449;;16.716666666;98.573333333
Q66729592;;14.110277777;102.837222222
Q66760359;;7.153888888;100.532777777
Q66763589;;6.757222222;100.396666666
Q66763600;;7.158333333;100.556111111
Q66763614;;7.185722222;100.600222222
Q66765158;;6.760861111;100.393444444
Q66779401;;7.106944444;100.465833333
Q66780211;;7.475;100.438611111
Q66781598;;7.647138888;100.389361111
Q66793852;;9.707611111;100.016277777
Q66809978;;14.944444444;103.833055555
Q66809984;;14.944722222;103.825555555
Q13020909;;13.814857;100.466821
Q13020912;;13.409188888;99.998673888
Q13020919;;13.85574;100.42458
Q13020917;;14.030833333;100.563611111
Q13020922;;17.440555555;100.046111111
Q13020923;;13.814985;100.481882
Q13020920;;13.809722222;100.184166666
Q13020926;;17.884166666;102.757222222
Q13020927;;15.26761;103.756821
Q13020924;;19.498611111;99.972222222
Q13020925;;17.413055555;102.779166666
Q13020930;;17.649166666;100.119166666
Q13020929;;13.83983;99.8865
Q13020938;;16.796666666;98.602222222
Q13020939;;16.902466;100.23534
Q13020942;;13.7425;100.258611111
Q13020940;;13.701111111;100.523888888
Q13021260;;14.354680555;100.557730555
Q13021261;;14.802385;100.321216
Q13023150;;13.919167;100.396111
Q99541053;;13.706111111;100.461111111
Q99542604;;13.856944444;100.861111111
Q99542626;;13.746666666;100.876666666
Q99542689;;13.800555555;100.786944444
Q99542702;;13.700277777;100.851666666
Q99542718;;13.764722222;100.778055555
Q99542735;;13.779722222;100.801944444
Q99542757;;13.772777777;100.658611111
Q99542872;;13.836111111;100.638055555
Q99542959;;13.74;100.445555555
Q99545571;;13.694444444;100.392777777
Q99562191;;14.554166666;100.365
Q99562613;;14.646111111;100.4625
Q99565448;;13.660833333;100.531666666
Q99565537;;13.653611111;100.538333333
Q99573183;;13.72625;100.4715
Q99601050;;13.919166666;100.493888888
Q99601198;;13.922222222;100.496388888
Q99601484;;13.922222222;100.488888888
Q99601625;;13.668611111;100.643888888
Q99601925;;13.653611111;100.630833333
Q99601938;;13.681111111;100.548333333
Q99602754;;13.712777777;100.603611111
Q99617427;;13.899444444;100.480277777
Q99618062;;13.863285;100.446905
Q99618391;;13.8575;100.465555555
Q99618991;;13.826111111;100.4975
Q99619111;;13.823333333;100.498333333
Q99622812;;19.188611111;100.906111111
Q99624728;;18.776944444;100.784166666
Q99628271;;13.858055555;100.480833333
Q99628274;;13.848611111;100.493611111
Q99628275;;13.841666666;100.493611111
Q99628273;;13.851666666;100.494722222
Q99628278;;13.820416666;100.504472222
Q99628276;;13.826111111;100.510555555
Q99628277;;13.833333333;100.499444444
Q99628491;;13.832777777;100.516111111
Q99628489;;13.832222222;100.507222222
Q99628495;;13.835833333;100.523333333
Q99628493;;13.834444444;100.5225
Q99628499;;13.861388888;100.481388888
Q99628497;;13.844416666;100.526722222
Q99628502;;13.872222222;100.479722222
Q99628500;;13.868333333;100.480277777
Q99630922;;13.863333333;100.475
Q99630921;;13.886944444;100.482222222
Q99630926;;13.865555555;100.466388888
Q99630927;;13.8625;100.453333333
Q99630924;;13.861111111;100.475
Q99630931;;13.851111111;100.456111111
Q99630929;;13.850416666;100.444444444
Q99630934;;13.847777777;100.466666666
Q99630932;;13.848888888;100.461388888
Q99630939;;13.838055555;100.478055555
Q99630936;;13.834444444;100.460277777
Q99630937;;13.840833333;100.469722222
Q99630943;;13.845277777;100.4875
Q99630941;;13.8425;100.475833333
Q99630946;;13.826111111;100.492777777
Q99630945;;13.824722222;100.481611111
Q99630948;;13.836388888;100.487777777
Q99630949;;13.828888888;100.495555555
Q99630952;;13.813333333;100.491944444
Q99641196;;19.088611111;100.785833333
Q99641321;;18.773333333;100.774444444
Q99641655;;18.774647;100.769116
Q99641727;;13.810833333;100.488055555
Q99641730;;13.805277777;100.504166666
Q99641728;;13.820277777;100.483055555
Q99641729;;13.829444444;100.470277777
Q99641734;;13.806388888;100.488611111
Q99641735;;13.805833333;100.4825
Q99641732;;13.815916666;100.503138888
Q99641733;;13.811944444;100.4975
Q99641738;;13.792222222;100.469166666
Q99641739;;13.801666666;100.471666666
Q99641736;;13.801944444;100.482777777
Q99641737;;13.795111111;100.477861111
Q99641740;;13.805833333;100.479722222
Q99641741;;13.808888888;100.474444444
Q99641746;;13.810361111;100.45825
Q99641747;;13.8155;100.452638888
Q99641744;;13.811444444;100.470388888
Q99641745;;13.813611111;100.469444444
Q99641750;;13.828611111;100.446111111
Q99641751;;13.8275;100.440555555
Q99641748;;13.822777777;100.450833333
Q99641749;;13.826666666;100.456111111
Q99641754;;13.815277777;100.441388888
Q99641752;;13.828333333;100.435833333
Q99641753;;13.827777777;100.430277777
Q99641758;;13.818333333;100.424166666
Q99641756;;13.805;100.443888888
Q99641762;;13.813333333;100.409444444
Q99641763;;13.815;100.406944444
Q99641760;;13.828333333;100.4225
Q99641761;;13.827777777;100.411388888
Q99641766;;13.810277777;100.396944444
Q99641767;;13.823083333;100.403
Q100375989;;13.911111111;100.016111111
Q100375994;;13.999937;100.065271
Q100375995;;13.987777777;100.071111111
Q100375992;;13.956388888;100.045277777
Q100375993;;13.958611111;100.063333333
Q100375998;;13.928055555;100.111666666
Q100375999;;13.930833333;100.133055555
Q100375996;;13.965555555;100.084166666
Q100375997;;13.963888888;100.11
Q100376002;;13.894444444;100.118333333
Q100376003;;13.909444444;100.102222222
Q100376000;;13.915277777;100.150833333
Q100376001;;13.915;100.143611111
Q100376006;;13.921666666;100.083333333
Q100376007;;13.928888888;100.070277777
Q100376004;;13.892222222;100.089722222
Q100376005;;13.906388888;100.076666666
Q100383215;;13.885277777;100.055277777
Q100383213;;13.900769;100.048589
Q100383218;;13.890555555;99.982222222
Q100383219;;13.875277777;100.021111111
Q100383216;;13.892222222;100.002777777
Q100383223;;13.833963;100.00289
Q100383221;;13.867777777;99.985
Q100383227;;13.838055555;100.031388888
Q100383225;;13.845;100.029722222
Q100383230;;13.825277777;100.047777777
Q100383229;;13.801231;100.010896
Q100383235;;13.821944444;100.074166666
Q100383233;;13.818333333;100.068055555
Q100383238;;13.811944444;100.113888888
Q100383237;;13.823888888;100.093888888
Q100383242;;13.848903;100.088071
Q100383240;;13.843055555;100.077777777
Q100383244;;13.829444444;100.1075
Q100402052;;13.689139;100.554854
Q100403332;;13.795555555;100.035555555
Q100403556;;14.581666666;100.188333333
Q100410082;;13.8425;100.143611111
Q100410087;;13.895555555;100.159166666
Q100410084;;13.865;100.153055555
Q100410085;;13.869722222;100.17
Q100410090;;13.894054;100.176299
Q100410095;;13.881944444;100.192777777
Q100410093;;13.8775;100.190555555
Q100410099;;13.893333333;100.201111111
Q100410102;;13.902032;100.251749
Q100410107;;13.861111111;100.265833333
Q100410104;;13.869444444;100.210833333
Q100410108;;13.828333333;100.225555555
Q100410114;;13.820277777;100.196944444
Q100410112;;13.82883;100.199864
Q100410118;;13.816388888;100.1875
Q100410117;;13.817222222;100.19
Q100410123;;13.820277777;100.144444444
Q100410120;;13.810833333;100.184722222
Q100410126;;13.794633888;100.12959
Q100410128;;13.793055555;100.130555555
Q100410129;;13.779166666;100.1275
Q100410134;;13.795833333;100.153333333
Q100410132;;13.790277777;100.145555555
Q100410139;;13.760665;100.157595
Q100410136;;13.789722222;100.155833333
Q100410142;;13.752777777;100.173888888
Q100410145;;13.786111111;100.163333333
Q100410150;;13.746111111;100.181388888
Q100410148;;13.790833333;100.158333333
Q100410154;;13.790833333;100.225833333
Q100410155;;8.914444444;99.182777777
Q100410152;;13.783333333;100.205
Q100410158;;13.7675;100.258333333
Q100410163;;13.804722222;100.248333333
Q100410160;;13.769722222;100.239166666
Q100410165;;13.722222222;100.205555555
Q100410171;;13.741666666;100.229722222
Q100410168;;13.715833333;100.221666666
Q100410173;;13.733888888;100.234166666
Q100410178;;13.703055555;100.256666666
Q100410176;;13.72;100.230277777
Q100410183;;13.688611111;100.26
Q100410187;;13.695618;100.285004
Q100410189;;13.728611111;100.308888888
Q100410193;;13.745277777;100.323333333
Q100410199;;13.695361111;100.213166666
Q100410197;;13.706111111;100.23
Q100410202;;13.714722222;100.206944444
Q100410208;;13.713055555;100.1625
Q100410209;;13.654722222;100.093611111
Q100410212;;13.683333333;100.090833333
Q100410964;;8.875555555;99.168333333
Q100411333;;9.020833333;99.224722222
Q100418339;;13.686388888;100.065833333
Q100418342;;13.745161944;100.086591944
Q100418340;;13.708333333;100.059166666
Q100418344;;13.798888888;100.080277777
Q100426423;;13.731388888;100.033055555
Q100426427;;13.775555555;100.030833333
Q100426430;;13.777777777;100.011111111
Q100426433;;13.749444444;99.973055555
Q100426439;;13.786944444;99.965555555
Q99641765;;13.802777777;100.408333333
Q99641768;;13.819361111;100.377722222
Q99641769;;13.803611111;100.375833333
Q99641789;;19.303611111;100.854444444
Q99641829;;18.571388888;100.752222222
Q99641869;;19.175555555;100.935555555
Q99642038;;19.178611111;100.918055555
Q99642746;;13.831944444;100.373055555
Q99642747;;13.838888888;100.399444444
Q99642744;;13.848055555;100.393888888
Q99642745;;13.837222222;100.391944444
Q99642750;;13.859166666;100.427777777
Q99642748;;13.840833333;100.417222222
Q99642749;;13.844722222;100.436666666
Q99642754;;13.853333333;100.419444444
Q99642755;;13.859444444;100.404722222
Q99642752;;13.853055555;100.43
Q99642753;;13.854166666;100.423055555
Q99642758;;13.849444444;100.398055555
Q99642759;;13.848888888;100.391944444
Q99642756;;13.850944444;100.40725
Q99642757;;13.850833333;100.402777777
Q99642762;;13.915277777;100.328055555
Q99642763;;13.918611111;100.301666666
Q99642760;;13.839444444;100.338611111
Q99642761;;13.867361111;100.351972222
Q99642766;;14.001638888;100.275277777
Q99642767;;14.018055555;100.297777777
Q99642764;;13.943333333;100.33
Q99642765;;13.938055555;100.278888888
Q99642770;;14.104444444;100.326666666
Q99642771;;14.098888888;100.340277777
Q99642768;;14.039166666;100.293611111
Q99642769;;14.106666666;100.303611111
Q99642774;;13.975555555;100.355555555
Q99642775;;13.921944444;100.381666666
Q99642772;;14.024722222;100.330833333
Q99642773;;13.956944444;100.348611111
Q99642779;;13.964722222;100.457777777
Q99642776;;13.919555555;100.348555555
Q99642777;;13.901388888;100.353611111
Q99642782;;13.985;100.414722222
Q99642783;;13.926944444;100.479166666
Q99642780;;13.935555555;100.498611111
Q99642781;;13.930277777;100.486944444
Q99642786;;13.900555555;100.454722222
Q99642787;;13.905833333;100.463888888
Q99642784;;13.923055555;100.468055555
Q99642785;;13.911944444;100.465277777
Q99642790;;13.905833333;100.483611111
Q99642791;;13.913055555;100.486111111
Q99642789;;13.8975;100.488333333
Q99642794;;13.940833333;100.511666666
Q99642795;;13.940277777;100.513888888
Q99642792;;13.920833333;100.504166666
Q99642793;;13.924166666;100.504166666
Q99642798;;13.930277777;100.55
Q99642799;;13.9525;100.540833333
Q99642796;;13.941666666;100.523611111
Q99642797;;13.911666666;100.541388888
Q99642800;;13.944361111;100.534194444
Q99642801;;13.9425;100.530555555
Q99642823;;13.983033;100.39839
Q99642826;;13.944861111;100.396722222
Q99642827;;13.915277777;100.424166666
Q99642824;;13.954444444;100.441944444
Q99642825;;13.974388888;100.374777777
Q99642830;;13.870833333;100.433055555
Q99642831;;13.864166666;100.426666666
Q99642828;;13.873888888;100.4475
Q99642832;;13.879722222;100.424722222
Q99642833;;13.905277777;100.379444444
Q99646347;;13.913;100.473694444
Q99653606;;10.230555555;99.091666666
Q99653649;;10.712777777;99.323055555
Q99654087;;10.4825;99.155
Q99654180;;9.444444444;99.992222222
Q99654243;;10.247777777;99.115833333
Q99654373;;10.866111111;99.437222222
Q99654391;;10.491944444;99.141666666
Q99654395;;10.458333333;99.214722222
Q99654439;;10.518361111;99.188666666
Q99654456;;10.52;99.189166666
Q99654466;;10.560555555;99.166388888
Q99654518;;9.071944444;99.1275
Q99654824;;10.504629;99.122586
Q99654987;;8.896388888;99.301111111
Q99655374;;10.504444444;99.110555555
Q99655565;;10.499166666;99.139722222
Q99655688;;10.548055555;99.18
Q99657067;;10.425277777;99.059444444
Q99657467;;10.122222222;98.929166666
Q99657614;;9.945555555;99.109166666
Q99658718;;13.939166666;100.500555555
Q99658723;;13.943611111;100.504166666
Q99658730;;13.981388888;100.435833333
Q99658731;;14.014166666;100.349722222
Q99658766;;14.113888888;100.351666666
Q99658767;;14.148333333;100.283333333
Q99658768;;14.053055555;100.255833333
Q28772810;;16.0856;102.3853
Q29509703;;15.351122;103.797447
Q29509785;;14.884458;103.492961
Q29863684;;17.320225;99.827885
Q29881742;;14.361088;100.549306
Q30013939;;14.854727;101.693011
Q30081231;;14.321988;100.40616
Q30083110;;18.716441;98.909603
Q30309657;;7.612422;100.031351
Q30312858;;7.620251;100.08024
Q30337295;;16.339636;104.807685
Q30445442;;13.806025;100.423292
Q30453249;;7.624195;100.142186
Q30590557;;13.74583333;100.50138889
Q30620370;;14.625637;98.678339
Q30672819;;13.676388888;100.255555555
Q31146945;;7.600721;100.060887
Q31169140;;7.627373;100.116831
Q31172705;;7.632786;100.150174
Q31173116;;7.622887;100.142594
Q31204474;;7.636944444;100.064444444
Q31204563;;7.620966;100.144283
Q31205269;;7.61729;100.150745
Q31208362;;7.78334;100.049564
Q31208685;;7.303491;100.256617
Q31208751;;7.838761;99.970689
Q31208975;;7.617416;100.145503
Q31350575;;18.291388888;99.506111111
Q31350580;;13.167777777;100.806944444
Q31351238;;18.87976;98.971978
Q31950594;;14.278045;100.676349
Q31980217;;8.233279;99.86207
Q32416332;;17.598333333;102.636666666
Q32830118;;14.331944444;100.398333333
Q32885197;;14.352397;100.962233
Q32910507;;14.203925;101.211771
Q32955065;;14.435386;100.749357
Q33066178;;14.035555555;100.642777777
Q33082311;;13.660555555;100.166388888
Q33092975;;14.399444444;100.900555555
Chinatown de Bangkok;;13.741666666;100.508333333
Q36449174;;13.917461;100.485129
Q36449570;;13.919166666;100.480555555
Q36805109;;14.631944444;100.558055555
Q13025878;;13.856948288;100.640059473
Q13026322;;13.752449;100.497163
Q13026757;;8.580555555;99.93
Q13434395;;12.761944;100.901667
Q13452399;;20.273022;100.077564
Q14201823;;9.771;100.056
Ramkhamhaeng Road;;13.756497;100.614656
Q14204506;;8.3775;98.721667
Q100426436;;13.762222222;99.965
Q100426443;;13.759444444;99.957777777
Q100426446;;13.759166666;99.948055555
Q100426450;;13.780555555;99.988888888
Q100426453;;13.796944444;99.991388888
Q100426457;;13.820277777;99.991111111
Q100426463;;13.831388888;99.963888888
Q100426465;;13.847222222;99.977777777
Q100426470;;13.862222222;99.958611111
Q100426473;;13.886833333;99.959083333
Q100426478;;13.845833333;99.922222222
Q100426480;;13.8825;99.930833333
Q100426495;;13.916388888;99.943333333
Q100428403;;13.936111111;99.964722222
Q100428406;;13.962861111;99.984472222
Q100428404;;13.956666666;99.974166666
Q100428411;;13.994722222;99.948055555
Q100428408;;13.968888888;99.988055555
Q100428414;;13.957222222;99.876666666
Q100428413;;13.943611111;99.923055555
Q100428419;;14.001605;99.848708
Q100428416;;13.973611111;99.882777777
Q100428417;;13.984444444;99.848333333
Q100428423;;14.026388888;99.885555555
Q100428421;;14.002777777;99.879166666
Q100428426;;14.02;99.853333333
Q100428425;;14.051388888;99.905833333
Q100428430;;14.03;99.853055555
Q100428434;;14.053055555;99.853333333
Q100428433;;14.073333333;99.925555555
Q100428438;;14.122222222;99.983888888
Q100428436;;14.086666666;99.943333333
Q100428443;;14.080555555;100.026666666
Q100428440;;14.085698;99.966006
Q100428441;;14.082777777;99.983333333
Q100428446;;14.093333333;100.018055555
Q100428449;;14.101361111;99.995833333
Q100428454;;14.131666666;100.0175
Q100428452;;14.114166666;100.011944444
Q100428459;;14.124444444;100.086111111
Q100428457;;14.1275;100.041111111
Q100428463;;14.178333333;100.211111111
Q100428461;;14.126111111;100.127777777
Q100428465;;14.153888888;100.245277777
Q100449090;;14.195833333;100.2425
Q100449088;;14.163611111;100.302777777
Q100449089;;14.173611111;100.265833333
Q100449094;;14.205;100.313333333
Q100449095;;14.193611111;100.322777777
Q100449092;;14.190277777;100.295555555
Q100449099;;14.195277777;100.370555555
Q100449097;;14.200833333;100.350277777
Q100449102;;14.171111111;100.406666666
Q100449103;;14.15;100.450555555
Q100449100;;14.214444444;100.409722222
Q100449107;;14.143055555;100.386111111
Q100449105;;14.153888888;100.394444444
Q100449109;;14.123888888;100.414722222
Q100534713;;13.671388888;100.540833333
Q100563351;;9.113333333;99.221666666
Q100563630;;8.983055555;99.205555555
Q100563836;;9.106111111;99.234444444
Q100564433;;9.099722222;99.228333333
Q100564829;;9.098611111;99.203888888
Q100565107;;9.125277777;99.258333333
Q100566042;;9.123055555;99.215555555
Q14205109;;9.6984;100.0394
Ban Rak Thai;;19.5861;97.9455
Q14212979;;18.83944;97.95139
Q14339757;;13.796667;100.626667
Q14754198;;20.27476;100.08404
Q14754199;;20.27317;100.08031
Q14754196;;20.28631;100.07527
Q14754202;;20.24383;100.10912
Q14754203;;20.35268;100.08179
Q14754204;;20.44181;99.87333
Q100594894;;13.998611111;100.482777777
Q100594895;;14.011111111;100.469166666
Q100594892;;13.992222222;100.506388888
Q100594899;;14.032222222;100.479722222
Q100594897;;14.020031;100.459344
Q100594903;;14.070833333;100.478888888
Q100594901;;14.036666666;100.491111111
Q100594907;;14.071388888;100.383611111
Q100594905;;14.04664;100.417955
Q100594910;;14.054444444;100.438888888
Q100594914;;14.065833333;100.530555555
Q100594912;;14.063888888;100.516111111
Q100594918;;14.068333333;100.523611111
Q100594917;;14.068055555;100.526944444
Q100594922;;14.078055555;100.521111111
Q100594926;;14.090833333;100.506944444
Q100594924;;14.079444444;100.521111111
Q100594930;;14.120277777;100.526111111
Q100594928;;14.103055555;100.460833333
Q100594934;;14.102222222;100.546111111
Q100594933;;14.105047;100.53749
Q100594937;;14.113333333;100.581388888
Q100594943;;14.091666666;100.542305555
Q100594940;;14.108611111;100.572777777
Q100594946;;14.087;100.533972222
Q100594947;;14.078666666;100.526111111
Q100594951;;14.074527;100.552749
Q100594949;;14.061666666;100.543333333
Q100594955;;14.041716;100.567982
Q100594953;;14.052222222;100.558333333
Q100594958;;14.05942;100.572441
Q100594962;;14.041944444;100.583055555
Q100594963;;14.032222222;100.546944444
Q100594960;;14.059722222;100.591111111
Q100594967;;14.034444444;100.543333333
Q100594964;;14.049877;100.550142
Q100594965;;14.048317;100.506322
Q100594970;;14.023888888;100.535277777
Q100594971;;14.016388888;100.535555555
Q100594969;;14.030277777;100.539166666
Q100594975;;14.020888888;100.538583333
Q100594973;;14.003055555;100.541388888
Q100594977;;14.026388888;100.585555555
Q100595748;;14.078611111;100.423055555
Q100595768;;13.6825;100.245555555
Q100629634;;13.755833333;100.610833333
Q100652751;;15.072931;100.148438
Q100670739;;14.302777777;100.946388888
Q100670746;;14.306111111;100.961666666
Q100670754;;14.329722222;100.972222222
Q100670847;;14.1275;100.586111111
Q100670855;;14.128055555;100.619166666
Q100670861;;14.091388888;100.640277777
Q100670870;;14.051477;100.650058
Q100670878;;14.052437;100.672305
Q100670883;;14.083888888;100.664722222
Q100670889;;14.171111111;100.676111111
Q100670895;;14.146666666;100.685
Q100670904;;14.114722222;100.6875
Q100670909;;14.046666666;100.688888888
Q100670916;;14.045546;100.676402
Q100670927;;14.148333333;100.710833333
Q100670924;;14.042777777;100.709166666
Q100670932;;14.190555555;100.732222222
Q100670941;;14.115277777;100.730277777
Q100670949;;14.095555555;100.721944444
Q100670956;;14.056388888;100.731111111
Q100670963;;14.19;100.754166666
Q100670968;;14.08;100.756666666
Q100670972;;14.074722222;100.7775
Q100670981;;14.096388888;100.779722222
Q100670989;;14.101944444;100.799444444
Q100670997;;14.135277777;100.756111111
Q100671003;;14.163888888;100.776666666
Q100671012;;14.1625;100.799166666
Q100671022;;14.208176;100.778605
Q100671033;;14.206388888;100.804166666
Q100671042;;14.232222222;100.802222222
Q100671054;;14.242222222;100.824166666
Q100671062;;14.197222222;100.824722222
Q100671073;;14.187962;100.835403
Q100671082;;14.166944444;100.847777777
Q100671090;;14.196111111;100.867888888
Q100671098;;14.265363;100.949133
Q100671107;;14.140823;100.911135
Q100671116;;14.133888888;100.869722222
Q100671125;;14.114444444;100.8475
Q100671143;;14.075833333;100.825277777
Q100671149;;14.062222222;100.856111111
Q100671159;;14.054166666;100.825555555
Q100671171;;14.043611111;100.793611111
Q100671182;;14.027691;100.754607
Q100671194;;14.025757;100.750468
Q100671202;;14.003888888;100.643333333
Q100671208;;13.981944444;100.655833333
Q100671222;;13.971388888;100.624722222
Q100671234;;13.970277777;100.6275
Q100671244;;13.963611111;100.608055555
Q100671253;;13.95919;100.635102
Q100671267;;13.958055555;100.646944444
Q99658769;;14.030555555;100.270833333
Q99658779;;13.925;100.256388888
Q99658782;;13.833055555;100.313333333
Q99658780;;13.883611111;100.289166666
Q99658781;;13.843333333;100.308055555
Q99670319;;7.409166666;99.525
Q99670374;;7.563055555;99.710555555
Q99670408;;7.555277777;99.730277777
Q99670522;;8.409444444;99.966388888
Q99670534;;9.581666666;99.985555555
Q99670664;;8.405;99.967222222
Q99670673;;8.438333333;99.961944444
Q99670680;;8.443888888;99.961944444
Q99670700;;8.405;99.966388888
Q99670713;;8.408055555;99.796666666
Q99670723;;9.045277777;99.542222222
Q99670752;;8.339166666;99.833611111
Q99670975;;7.9875;99.936111111
Q99671002;;8.388888888;99.370555555
Q99671015;;8.300277777;100.227777777
Q99671027;;8.250138;99.936036
Q99671137;;7.912777777;100.218055555
Q99671175;;8.435799;99.963053
Q99671244;;8.411388888;99.963888888
Q99671303;;8.685;99.907777777
Q99671511;;8.86;99.873888888
Q99671558;;8.920833333;99.845833333
Q99672626;;8.544166666;99.6225
Q99672684;;8.3625;99.924444444
Q99672761;;8.516944444;99.832777777
Q99672877;;8.148527777;99.725305555
Q99672915;;9.539444444;99.191388888
Q99672996;;8.163444444;99.722333333
Q99673035;;8.6625;99.911666666
Q99673070;;9.186388888;99.814166666
Q99673078;;8.139166666;100.248055555
Q99688779;;13.644166666;100.138333333
Q99688806;;13.628611111;100.5475
Q99688827;;13.723888888;100.500833333
Q99694442;;7.710277777;100.365555555
Q99735930;;20.246111111;100.118333333
Q99736007;;19.157521;98.978444
Q99736268;;12.937777777;100.892222222
Q99736313;;16.408888888;102.834166666
Q99736357;;15.380555555;100.251388888
Q99736474;;13.785;100.161944444
Q99738190;;15.159166666;103.878888888
Q99746624;;13.599722222;100.129722222
Q99746748;;13.606666666;100.622222222
Q99747239;;13.6275;100.2775
Q99747336;;13.648611111;100.323611111
Q99747554;;13.629722222;100.313888888
Q99747658;;13.638333333;100.251944444
Q99747690;;13.643333333;100.206944444
Q99748071;;13.673611111;100.322777777
Q99748103;;13.670555555;100.189444444
Q99748131;;13.705833333;100.323611111
Q99748164;;13.703888888;100.2975
Q99748199;;9.144166666;98.956944444
Q99748265;;9.238888888;98.976944444
Q99748425;;9.190555555;98.961388888
Q99748619;;8.711944444;98.729444444
Q99748721;;8.900555555;98.525277777
Q99748837;;8.882777777;98.668055555
Q99749035;;8.848333333;98.730833333
Q99749333;;8.898055555;98.858055555
Q99749504;;8.819444444;98.820833333
Q99749818;;8.881111111;98.836388888
Q99750008;;8.864836;98.804152
Q99754988;;8.84433;98.84028
Q99755188;;8.882156;98.875533
Q99755233;;8.837154;98.773599
Q99755380;;8.747135;98.839758
Q99755650;;8.693969;98.797618
Q99755910;;8.808495;98.930222
Q99756156;;15.349051;101.927574
